{"Error":{"Code":0,"Message":""},"Count":18,"Dealers":[{"ID":"8676a139-ac3e-41f8-a672-b28612fe9e50","CountryId":"CT","SiteGeo":"000983G","RRDIID":"000983G01X","Name":"CITROEN BELUX - YSER  S.A.","AddressLine1":"Place de l\u0027Yser, 7","AddressLine2":"","AddressLine3":"","ZipCode":"1000","City":"BRUXELLES","Department":"département","Region":"Région","Longitude":4.349856,"Latitude":50.85806,"DistanceFromPoint":0.87},{"ID":"4e3925a2-edbd-4fae-8533-47ee85c6cd8d","CountryId":"CT","SiteGeo":"000493C","RRDIID":"000493C01X","Name":"F.R. MOTORS  S.A.","AddressLine1":"Chaussée de Gand, 636","AddressLine2":"","AddressLine3":"","ZipCode":"1080","City":"MOLENBEEK","Department":"","Region":"Bruxelles-Brussel","Longitude":4.322478,"Latitude":50.8573151,"DistanceFromPoint":2.19},{"ID":"9fbd0f1f-5a71-414c-992f-d71d9c7cf390","CountryId":"CT","SiteGeo":"000694K","RRDIID":"000694K01X","Name":"EURO-TRACTION  S.A.","AddressLine1":"Chaussée de Louvain, 321","AddressLine2":"","AddressLine3":"","ZipCode":"1030","City":"SCHAERBEEK","Department":"","Region":"Bruxelles-Brussel","Longitude":4.38653564,"Latitude":50.852066,"DistanceFromPoint":2.45},{"ID":"86bec512-a02b-4dd6-b606-1e49a8e40825","CountryId":"CT","SiteGeo":"000271M","RRDIID":"000271M01X","Name":"C.D.A.  sa","AddressLine1":"Rue Malibran, 107-113","AddressLine2":"","AddressLine3":"","ZipCode":"1050","City":"IXELLES","Department":"","Region":"Bruxelles-Brussel","Longitude":4.37434959,"Latitude":50.8321152,"DistanceFromPoint":2.58},{"ID":"07d96be3-22e9-412a-b99d-8f175990aaa3","CountryId":"CT","SiteGeo":"000071N","RRDIID":"000071N01X","Name":"GARAGE PIGEON  S.A.","AddressLine1":"Rue Général Leman 59","AddressLine2":"","AddressLine3":"","ZipCode":"1040","City":"ETTERBEEK","Department":"","Region":"Bruxelles-Brussel","Longitude":4.38440561,"Latitude":50.83672,"DistanceFromPoint":2.75},{"ID":"953f5fbb-3fe1-4cc8-816d-baba4ce5c8e1","CountryId":"CT","SiteGeo":"000044E","RRDIID":"000044E01X","Name":"LOGNOUL & FILS  S.A.","AddressLine1":"Chaussée de Jette, 543","AddressLine2":"","AddressLine3":"","ZipCode":"1090","City":"JETTE","Department":"","Region":"Bruxelles-Brussel","Longitude":4.32735872,"Latitude":50.8697929,"DistanceFromPoint":2.76},{"ID":"9903495a-f9fb-4bee-8d72-7d473366d23e","CountryId":"CT","SiteGeo":"000981X","RRDIID":"000981X01X","Name":"CITROEN BELUX - EVERE  S.A.","AddressLine1":"Avenue L. Mommaerts, 14-18","AddressLine2":"","AddressLine3":"","ZipCode":"1140","City":"EVERE","Department":"","Region":"Bruxelles-Brussel","Longitude":4.411572,"Latitude":50.8563271,"DistanceFromPoint":4.25},{"ID":"1b5454c7-4816-497a-820a-4a77a2dfabbe","CountryId":"CT","SiteGeo":"000135M","RRDIID":"000135M01X","Name":"GARAGE LOUIS & FILS  S.P.R.L.","AddressLine1":"Chaussée de Ninove, 732","AddressLine2":"","AddressLine3":"","ZipCode":"1070","City":"ANDERLECHT","Department":"","Region":"Bruxelles-Brussel","Longitude":4.2895546,"Latitude":50.8461227,"DistanceFromPoint":4.39},{"ID":"6c1809fe-069b-46f6-9a42-be058a7a6bd7","CountryId":"CT","SiteGeo":"000503Q","RRDIID":"000503Q01X","Name":"BOUHARMONT CAR SERVICES  S.P.R.L.","AddressLine1":"Chaussée de Roodebeek, 224","AddressLine2":"","AddressLine3":"","ZipCode":"1200","City":"WOLUWE ST LAMBERT","Department":"","Region":"Bruxelles-Brussel","Longitude":4.42658663,"Latitude":50.84828,"DistanceFromPoint":5.26},{"ID":"9d37e5bd-cbe5-4bc7-8f98-6501fa02c26e","CountryId":"CT","SiteGeo":"000545B","RRDIID":"000545B01X","Name":"MECATECNIC  S.P.R.L.","AddressLine1":"Chaussée de Wavre, 1561","AddressLine2":"","AddressLine3":"","ZipCode":"1160","City":"AUDERGHEM","Department":"","Region":"Bruxelles-Brussel","Longitude":4.41956758,"Latitude":50.8178062,"DistanceFromPoint":5.98},{"ID":"ae4241be-b296-49d0-b725-97aaf93d1111","CountryId":"CT","SiteGeo":"000259Z","RRDIID":"000259Z01X","Name":"GARAGE VAN CAMPENHOUT  N.V.","AddressLine1":"St Annalaan, 279","AddressLine2":"","AddressLine3":"","ZipCode":"1853","City":"GRIMBERGEN (Strombeek)","Department":"","Region":"Brabant Flamand","Longitude":4.36626339,"Latitude":50.9104843,"DistanceFromPoint":6.77},{"ID":"186c80af-c922-4d0c-978d-f6146b1e5f8c","CountryId":"CT","SiteGeo":"000433M","RRDIID":"000433M01X","Name":"GARAGE DANIEL MOTOR  B.V.B.A.","AddressLine1":"Sint Stevensstraat, 29","AddressLine2":"","AddressLine3":"","ZipCode":"1600","City":"ST-PIETERS-LEEUW","Department":"","Region":"Vlaams-Brabant","Longitude":4.28712,"Latitude":50.80498,"DistanceFromPoint":6.78},{"ID":"fa36eccc-e733-4a83-b867-85c42483c09b","CountryId":"CT","SiteGeo":"000982B","RRDIID":"000982B01X","Name":"CITROEN BELUX - DROGENBOS  S.A.","AddressLine1":"Bemptstraat 36","AddressLine2":"","AddressLine3":"","ZipCode":"1620","City":"DROGENBOS","Department":"","Region":"Brabant Flamand","Longitude":4.31156874,"Latitude":50.7935829,"DistanceFromPoint":6.91},{"ID":"14f02bce-0b0f-4a06-bef6-c83c92c25aad","CountryId":"CT","SiteGeo":"000705L","RRDIID":"000705L01X","Name":"GARAGE GOEMAN-CAMMAERT","AddressLine1":"Brusselsesteenweg, 423","AddressLine2":"","AddressLine3":"","ZipCode":"1731","City":"ZELLIK","Department":"","Region":"Vlaams-Brabant","Longitude":4.26677942,"Latitude":50.8886261,"DistanceFromPoint":7.32},{"ID":"0961a83f-d058-4c1c-ad36-1f5b71c7743f","CountryId":"CT","SiteGeo":"000653H","RRDIID":"000653H01X","Name":"GARAGE DE STOCKEL   S.P.R.L.","AddressLine1":"Chaussée de Stockel, 393","AddressLine2":"","AddressLine3":"","ZipCode":"1150","City":"WOLUWE ST PIERRE","Department":"","Region":"Bruxelles-Brussel","Longitude":4.45611334,"Latitude":50.8423843,"DistanceFromPoint":7.38},{"ID":"c80de2a8-f420-4ace-80fe-920008de434e","CountryId":"CT","SiteGeo":"000535A","RRDIID":"000535A01X","Name":"GARAGE G.M.J. S.P.R.L.","AddressLine1":"Avenue des Anciens Combattants, 160","AddressLine2":"","AddressLine3":"","ZipCode":"1950","City":"KRAAINEM","Department":"","Region":"Brabant Flamand","Longitude":4.459037,"Latitude":50.8645058,"DistanceFromPoint":7.7},{"ID":"b2657579-0083-4620-a09f-556b97d3d97a","CountryId":"CT","SiteGeo":"000038B","RRDIID":"000038B01X","Name":"VANDERGUCHT  N.V.","AddressLine1":"Grote Baan, 1","AddressLine2":"","AddressLine3":"","ZipCode":"1630","City":"LINKEBEEK","Department":"","Region":"Vlaams-Brabant","Longitude":4.3251586,"Latitude":50.7745438,"DistanceFromPoint":8.63},{"ID":"2b577941-0cd6-49fa-854b-60641c2518b8","CountryId":"CT","SiteGeo":"000442P","RRDIID":"000442P01X","Name":"GARAGE TRULLEMANS  N.V.","AddressLine1":"Lenniksebaan, 369","AddressLine2":"","AddressLine3":"","ZipCode":"1070","City":"ANDERLECHT","Department":"","Region":"Bruxelles-Brussel","Longitude":4.23102427,"Latitude":50.8180237,"DistanceFromPoint":9.21}]}