<?xml version="1.0" encoding="UTF-8"?><data xmlns:xsi="http://www.w3.org/2001/XMLSchema-instance" xmlns:xsd="http://www.w3.org/2001/XMLSchema"><Error><Code>0</Code><Message/></Error><Count>18</Count><Dealers><Dealer><ID>8676a139-ac3e-41f8-a672-b28612fe9e50</ID><CountryId>CT</CountryId><SiteGeo>000983G</SiteGeo><RRDIID>000983G01X</RRDIID><Name>CITROEN BELUX - YSER  S.A.</Name><AddressLine1>Place de l'Yser, 7</AddressLine1><AddressLine2/><AddressLine3/><ZipCode>1000</ZipCode><City>BRUXELLES</City><Department>département</Department><Region>Région</Region><Longitude>4.349856</Longitude><Latitude>50.85806</Latitude><DistanceFromPoint>0.87</DistanceFromPoint></Dealer><Dealer><ID>4e3925a2-edbd-4fae-8533-47ee85c6cd8d</ID><CountryId>CT</CountryId><SiteGeo>000493C</SiteGeo><RRDIID>000493C01X</RRDIID><Name>F.R. MOTORS  S.A.</Name><AddressLine1>Chaussée de Gand, 636</AddressLine1><AddressLine2/><AddressLine3/><ZipCode>1080</ZipCode><City>MOLENBEEK</City><Department/><Region>Bruxelles-Brussel</Region><Longitude>4.322478</Longitude><Latitude>50.8573151</Latitude><DistanceFromPoint>2.19</DistanceFromPoint></Dealer><Dealer><ID>9fbd0f1f-5a71-414c-992f-d71d9c7cf390</ID><CountryId>CT</CountryId><SiteGeo>000694K</SiteGeo><RRDIID>000694K01X</RRDIID><Name>EURO-TRACTION  S.A.</Name><AddressLine1>Chaussée de Louvain, 321</AddressLine1><AddressLine2/><AddressLine3/><ZipCode>1030</ZipCode><City>SCHAERBEEK</City><Department/><Region>Bruxelles-Brussel</Region><Longitude>4.38653564</Longitude><Latitude>50.852066</Latitude><DistanceFromPoint>2.45</DistanceFromPoint></Dealer><Dealer><ID>86bec512-a02b-4dd6-b606-1e49a8e40825</ID><CountryId>CT</CountryId><SiteGeo>000271M</SiteGeo><RRDIID>000271M01X</RRDIID><Name>C.D.A.  sa</Name><AddressLine1>Rue Malibran, 107-113</AddressLine1><AddressLine2/><AddressLine3/><ZipCode>1050</ZipCode><City>IXELLES</City><Department/><Region>Bruxelles-Brussel</Region><Longitude>4.37434959</Longitude><Latitude>50.8321152</Latitude><DistanceFromPoint>2.58</DistanceFromPoint></Dealer><Dealer><ID>07d96be3-22e9-412a-b99d-8f175990aaa3</ID><CountryId>CT</CountryId><SiteGeo>000071N</SiteGeo><RRDIID>000071N01X</RRDIID><Name>GARAGE PIGEON  S.A.</Name><AddressLine1>Rue Général Leman 59</AddressLine1><AddressLine2/><AddressLine3/><ZipCode>1040</ZipCode><City>ETTERBEEK</City><Department/><Region>Bruxelles-Brussel</Region><Longitude>4.38440561</Longitude><Latitude>50.83672</Latitude><DistanceFromPoint>2.75</DistanceFromPoint></Dealer><Dealer><ID>953f5fbb-3fe1-4cc8-816d-baba4ce5c8e1</ID><CountryId>CT</CountryId><SiteGeo>000044E</SiteGeo><RRDIID>000044E01X</RRDIID><Name>LOGNOUL &amp; FILS  S.A.</Name><AddressLine1>Chaussée de Jette, 543</AddressLine1><AddressLine2/><AddressLine3/><ZipCode>1090</ZipCode><City>JETTE</City><Department/><Region>Bruxelles-Brussel</Region><Longitude>4.32735872</Longitude><Latitude>50.8697929</Latitude><DistanceFromPoint>2.76</DistanceFromPoint></Dealer><Dealer><ID>9903495a-f9fb-4bee-8d72-7d473366d23e</ID><CountryId>CT</CountryId><SiteGeo>000981X</SiteGeo><RRDIID>000981X01X</RRDIID><Name>CITROEN BELUX - EVERE  S.A.</Name><AddressLine1>Avenue L. Mommaerts, 14-18</AddressLine1><AddressLine2/><AddressLine3/><ZipCode>1140</ZipCode><City>EVERE</City><Department/><Region>Bruxelles-Brussel</Region><Longitude>4.411572</Longitude><Latitude>50.8563271</Latitude><DistanceFromPoint>4.25</DistanceFromPoint></Dealer><Dealer><ID>1b5454c7-4816-497a-820a-4a77a2dfabbe</ID><CountryId>CT</CountryId><SiteGeo>000135M</SiteGeo><RRDIID>000135M01X</RRDIID><Name>GARAGE LOUIS &amp; FILS  S.P.R.L.</Name><AddressLine1>Chaussée de Ninove, 732</AddressLine1><AddressLine2/><AddressLine3/><ZipCode>1070</ZipCode><City>ANDERLECHT</City><Department/><Region>Bruxelles-Brussel</Region><Longitude>4.2895546</Longitude><Latitude>50.8461227</Latitude><DistanceFromPoint>4.39</DistanceFromPoint></Dealer><Dealer><ID>6c1809fe-069b-46f6-9a42-be058a7a6bd7</ID><CountryId>CT</CountryId><SiteGeo>000503Q</SiteGeo><RRDIID>000503Q01X</RRDIID><Name>BOUHARMONT CAR SERVICES  S.P.R.L.</Name><AddressLine1>Chaussée de Roodebeek, 224</AddressLine1><AddressLine2/><AddressLine3/><ZipCode>1200</ZipCode><City>WOLUWE ST LAMBERT</City><Department/><Region>Bruxelles-Brussel</Region><Longitude>4.42658663</Longitude><Latitude>50.84828</Latitude><DistanceFromPoint>5.26</DistanceFromPoint></Dealer><Dealer><ID>9d37e5bd-cbe5-4bc7-8f98-6501fa02c26e</ID><CountryId>CT</CountryId><SiteGeo>000545B</SiteGeo><RRDIID>000545B01X</RRDIID><Name>MECATECNIC  S.P.R.L.</Name><AddressLine1>Chaussée de Wavre, 1561</AddressLine1><AddressLine2/><AddressLine3/><ZipCode>1160</ZipCode><City>AUDERGHEM</City><Department/><Region>Bruxelles-Brussel</Region><Longitude>4.41956758</Longitude><Latitude>50.8178062</Latitude><DistanceFromPoint>5.98</DistanceFromPoint></Dealer><Dealer><ID>ae4241be-b296-49d0-b725-97aaf93d1111</ID><CountryId>CT</CountryId><SiteGeo>000259Z</SiteGeo><RRDIID>000259Z01X</RRDIID><Name>GARAGE VAN CAMPENHOUT  N.V.</Name><AddressLine1>St Annalaan, 279</AddressLine1><AddressLine2/><AddressLine3/><ZipCode>1853</ZipCode><City>GRIMBERGEN (Strombeek)</City><Department/><Region>Brabant Flamand</Region><Longitude>4.36626339</Longitude><Latitude>50.9104843</Latitude><DistanceFromPoint>6.77</DistanceFromPoint></Dealer><Dealer><ID>186c80af-c922-4d0c-978d-f6146b1e5f8c</ID><CountryId>CT</CountryId><SiteGeo>000433M</SiteGeo><RRDIID>000433M01X</RRDIID><Name>GARAGE DANIEL MOTOR  B.V.B.A.</Name><AddressLine1>Sint Stevensstraat, 29</AddressLine1><AddressLine2/><AddressLine3/><ZipCode>1600</ZipCode><City>ST-PIETERS-LEEUW</City><Department/><Region>Vlaams-Brabant</Region><Longitude>4.28712</Longitude><Latitude>50.80498</Latitude><DistanceFromPoint>6.78</DistanceFromPoint></Dealer><Dealer><ID>fa36eccc-e733-4a83-b867-85c42483c09b</ID><CountryId>CT</CountryId><SiteGeo>000982B</SiteGeo><RRDIID>000982B01X</RRDIID><Name>CITROEN BELUX - DROGENBOS  S.A.</Name><AddressLine1>Bemptstraat 36</AddressLine1><AddressLine2/><AddressLine3/><ZipCode>1620</ZipCode><City>DROGENBOS</City><Department/><Region>Brabant Flamand</Region><Longitude>4.31156874</Longitude><Latitude>50.7935829</Latitude><DistanceFromPoint>6.91</DistanceFromPoint></Dealer><Dealer><ID>14f02bce-0b0f-4a06-bef6-c83c92c25aad</ID><CountryId>CT</CountryId><SiteGeo>000705L</SiteGeo><RRDIID>000705L01X</RRDIID><Name>GARAGE GOEMAN-CAMMAERT</Name><AddressLine1>Brusselsesteenweg, 423</AddressLine1><AddressLine2/><AddressLine3/><ZipCode>1731</ZipCode><City>ZELLIK</City><Department/><Region>Vlaams-Brabant</Region><Longitude>4.26677942</Longitude><Latitude>50.8886261</Latitude><DistanceFromPoint>7.32</DistanceFromPoint></Dealer><Dealer><ID>0961a83f-d058-4c1c-ad36-1f5b71c7743f</ID><CountryId>CT</CountryId><SiteGeo>000653H</SiteGeo><RRDIID>000653H01X</RRDIID><Name>GARAGE DE STOCKEL   S.P.R.L.</Name><AddressLine1>Chaussée de Stockel, 393</AddressLine1><AddressLine2/><AddressLine3/><ZipCode>1150</ZipCode><City>WOLUWE ST PIERRE</City><Department/><Region>Bruxelles-Brussel</Region><Longitude>4.45611334</Longitude><Latitude>50.8423843</Latitude><DistanceFromPoint>7.38</DistanceFromPoint></Dealer><Dealer><ID>c80de2a8-f420-4ace-80fe-920008de434e</ID><CountryId>CT</CountryId><SiteGeo>000535A</SiteGeo><RRDIID>000535A01X</RRDIID><Name>GARAGE G.M.J. S.P.R.L.</Name><AddressLine1>Avenue des Anciens Combattants, 160</AddressLine1><AddressLine2/><AddressLine3/><ZipCode>1950</ZipCode><City>KRAAINEM</City><Department/><Region>Brabant Flamand</Region><Longitude>4.459037</Longitude><Latitude>50.8645058</Latitude><DistanceFromPoint>7.7</DistanceFromPoint></Dealer><Dealer><ID>b2657579-0083-4620-a09f-556b97d3d97a</ID><CountryId>CT</CountryId><SiteGeo>000038B</SiteGeo><RRDIID>000038B01X</RRDIID><Name>VANDERGUCHT  N.V.</Name><AddressLine1>Grote Baan, 1</AddressLine1><AddressLine2/><AddressLine3/><ZipCode>1630</ZipCode><City>LINKEBEEK</City><Department/><Region>Vlaams-Brabant</Region><Longitude>4.3251586</Longitude><Latitude>50.7745438</Latitude><DistanceFromPoint>8.63</DistanceFromPoint></Dealer><Dealer><ID>2b577941-0cd6-49fa-854b-60641c2518b8</ID><CountryId>CT</CountryId><SiteGeo>000442P</SiteGeo><RRDIID>000442P01X</RRDIID><Name>GARAGE TRULLEMANS  N.V.</Name><AddressLine1>Lenniksebaan, 369</AddressLine1><AddressLine2/><AddressLine3/><ZipCode>1070</ZipCode><City>ANDERLECHT</City><Department/><Region>Bruxelles-Brussel</Region><Longitude>4.23102427</Longitude><Latitude>50.8180237</Latitude><DistanceFromPoint>9.21</DistanceFromPoint></Dealer></Dealers></data>