{
   "Error":{
      "Code":0,
      "Message":""
   },
   "Count":162,
   "Dealers":[
      {
         "ID":"dc3526fa-576b-4a06-b656-194639eda2aa",
         "CountryId":"FR",
         "SiteGeo":"0000038241",
         "RRDIID":"020842E01F",
         "Name":"CITROËN RETAIL PARIS REPUBLIQUE",
         "AddressLine1":"62 AVENUE DE LA REPUBLIQUE",
         "AddressLine2":"",
         "AddressLine3":"",
         "ZipCode":"75011",
         "City":"PARIS",
         "Department":"Paris",
         "Region":"Ile-de-France",
         "Longitude":2.376711,
         "Latitude":48.8646774,
         "DistanceFromPoint":2
      },
      {
         "ID":"170dc1cb-b37d-4740-821b-791c90b3de50",
         "CountryId":"FR",
         "SiteGeo":"0000040609",
         "RRDIID":"990131Z01F",
         "Name":"GARAGE DU FAUBOURG",
         "AddressLine1":"33 RUE DE REUILLY",
         "AddressLine2":"",
         "AddressLine3":"",
         "ZipCode":"75012",
         "City":"PARIS",
         "Department":"Paris",
         "Region":"Ile-de-France",
         "Longitude":2.3867,
         "Latitude":48.8474,
         "DistanceFromPoint":2.72
      },
      {
         "ID":"b028be24-6892-49a0-9c7d-1f1aed75607f",
         "CountryId":"FR",
         "SiteGeo":"0000042048",
         "RRDIID":"020906Z01F",
         "Name":"CITROËN RETAIL PARIS 8",
         "AddressLine1":"25 RUE DE CONSTANTINOPLE",
         "AddressLine2":"",
         "AddressLine3":"",
         "ZipCode":"75008",
         "City":"PARIS",
         "Department":"Paris",
         "Region":"Ile-de-France",
         "Longitude":2.319153,
         "Latitude":48.8802643,
         "DistanceFromPoint":3.57
      },
      {
         "ID":"f6192f47-bbcf-4718-92e6-78767d240fa8",
         "CountryId":"FR",
         "SiteGeo":"0000041370",
         "RRDIID":"038901J01F",
         "Name":"FELIX FAURE JAURES",
         "AddressLine1":"59 BIS AVENUE JEAN JAURES",
         "AddressLine2":"",
         "AddressLine3":"",
         "ZipCode":"75019",
         "City":"PARIS",
         "Department":"Paris",
         "Region":"Ile-de-France",
         "Longitude":2.3768878,
         "Latitude":48.88437,
         "DistanceFromPoint":3.57
      },
      {
         "ID":"6fa53b90-feb6-4001-862a-894675fa5b15",
         "CountryId":"FR",
         "SiteGeo":"0000038619",
         "RRDIID":"766108K01F",
         "Name":"GARAGE CITE LECOURBE",
         "AddressLine1":"88 RUE LECOURBE",
         "AddressLine2":"",
         "AddressLine3":"",
         "ZipCode":"75015",
         "City":"PARIS",
         "Department":"Paris",
         "Region":"Ile-de-France",
         "Longitude":2.30466,
         "Latitude":48.8432,
         "DistanceFromPoint":3.79
      },
      {
         "ID":"bf33b7a0-8510-41cf-8e68-b5dfb4df6cca",
         "CountryId":"FR",
         "SiteGeo":"0000038179",
         "RRDIID":"058835B01F",
         "Name":"CITROËN RETAIL PARIS-EST ETS PARIS NATION",
         "AddressLine1":"42 COURS DE VINCENNES",
         "AddressLine2":"",
         "AddressLine3":"",
         "ZipCode":"75012",
         "City":"PARIS",
         "Department":"Paris",
         "Region":"Ile-de-France",
         "Longitude":2.402546,
         "Latitude":48.84742,
         "DistanceFromPoint":3.82
      },
      {
         "ID":"29f37c6c-5f99-45e9-87c1-211e00e627e8",
         "CountryId":"FR",
         "SiteGeo":"0000040618",
         "RRDIID":"990138L01F",
         "Name":"AUTO SPECIALITES",
         "AddressLine1":"42 RUE BELGRAND",
         "AddressLine2":"",
         "AddressLine3":"",
         "ZipCode":"75020",
         "City":"PARIS",
         "Department":"Paris",
         "Region":"Ile-de-France",
         "Longitude":2.40404,
         "Latitude":48.8647,
         "DistanceFromPoint":3.9
      },
      {
         "ID":"abd23d1b-55a6-41ae-9b1c-7b02ac7c70c3",
         "CountryId":"FR",
         "SiteGeo":"0000044404",
         "RRDIID":"020907A01F",
         "Name":"CITROËN RETAIL VENTES AUX SOCIETES PARIS 3",
         "AddressLine1":"133/139 AVENUE D\u0027ITALIE",
         "AddressLine2":"",
         "AddressLine3":"",
         "ZipCode":"75013",
         "City":"PARIS",
         "Department":"Paris",
         "Region":"Ile-de-France",
         "Longitude":2.359212,
         "Latitude":48.8209572,
         "DistanceFromPoint":4
      },
      {
         "ID":"3db745c1-d21e-4c81-ae5c-ee4adfae8a2b",
         "CountryId":"FR",
         "SiteGeo":"0000038221",
         "RRDIID":"020858X01F",
         "Name":"CITROËN RETAIL PARIS ITALIE",
         "AddressLine1":"133 / 139 AVENUE D\u0027ITALIE",
         "AddressLine2":"",
         "AddressLine3":"",
         "ZipCode":"75013",
         "City":"PARIS",
         "Department":"Paris",
         "Region":"Ile-de-France",
         "Longitude":2.359212,
         "Latitude":48.8209572,
         "DistanceFromPoint":4
      },
      {
         "ID":"bd7373f3-983e-499d-9f9a-dd36a7502503",
         "CountryId":"FR",
         "SiteGeo":"0000041373",
         "RRDIID":"038900H01F",
         "Name":"FELIX FAURE JOURDAN",
         "AddressLine1":"50 BOULEVARD JOURDAN",
         "AddressLine2":"",
         "AddressLine3":"",
         "ZipCode":"75014",
         "City":"PARIS",
         "Department":"Paris",
         "Region":"Ile-de-France",
         "Longitude":2.329992,
         "Latitude":48.82182,
         "DistanceFromPoint":4.2
      },
      {
         "ID":"6c5a66cd-c000-4924-b13a-a971496025e5",
         "CountryId":"FR",
         "SiteGeo":"0000040632",
         "RRDIID":"614429H01F",
         "Name":"CICOV LEBAR",
         "AddressLine1":"6 RUE JACQUES CARTIER",
         "AddressLine2":"",
         "AddressLine3":"",
         "ZipCode":"75018",
         "City":"PARIS",
         "Department":"Paris",
         "Region":"Ile-de-France",
         "Longitude":2.32974,
         "Latitude":48.894,
         "DistanceFromPoint":4.47
      },
      {
         "ID":"1502c8c3-bae3-44d6-af9b-73fb8388542f",
         "CountryId":"FR",
         "SiteGeo":"0000041325",
         "RRDIID":"020824K01F",
         "Name":"FELIX FAURE PERNET",
         "AddressLine1":"10 PLACE ETIENNE PERNET",
         "AddressLine2":"",
         "AddressLine3":"",
         "ZipCode":"75015",
         "City":"PARIS",
         "Department":"Paris",
         "Region":"Ile-de-France",
         "Longitude":2.292532,
         "Latitude":48.84355,
         "DistanceFromPoint":4.6
      },
      {
         "ID":"d185a500-05ed-463a-b1a3-b7d8015c7049",
         "CountryId":"FR",
         "SiteGeo":"0000042556",
         "RRDIID":"166422U01F",
         "Name":"GENTILLY AUTOROUTES",
         "AddressLine1":"57 AVENUE RASPAIL",
         "AddressLine2":"",
         "AddressLine3":"",
         "ZipCode":"94250",
         "City":"GENTILLY",
         "Department":"Val-de-Marne",
         "Region":"Ile-de-France",
         "Longitude":2.34892,
         "Latitude":48.8139458,
         "DistanceFromPoint":4.75
      },
      {
         "ID":"58c43b41-53eb-4ec9-bb1d-214a23170746",
         "CountryId":"FR",
         "SiteGeo":"0000040617",
         "RRDIID":"990096Y01F",
         "Name":"GARAGE FOUGERE ET CIE",
         "AddressLine1":"27 RUE ANDRE JOINEAU",
         "AddressLine2":"",
         "AddressLine3":"",
         "ZipCode":"93310",
         "City":"LE PRE ST GERVAIS",
         "Department":"Seine-Saint-Denis",
         "Region":"Ile-de-France",
         "Longitude":2.40398,
         "Latitude":48.8865,
         "DistanceFromPoint":5.04
      },
      {
         "ID":"90424fcb-93ea-43b9-ab47-239162554da7",
         "CountryId":"FR",
         "SiteGeo":"0000038238",
         "RRDIID":"020861A01F",
         "Name":"CITROËN RETAIL PARIS RIVE GAUCHE ETS PORTE DE VERSAILLES",
         "AddressLine1":"75 BOULEVARD LEFEBVRE",
         "AddressLine2":"",
         "AddressLine3":"",
         "ZipCode":"75015",
         "City":"PARIS",
         "Department":"Paris",
         "Region":"Ile-de-France",
         "Longitude":2.293868,
         "Latitude":48.8306236,
         "DistanceFromPoint":5.16
      },
      {
         "ID":"d51d9a44-2e69-4615-91e6-f97f9e796217",
         "CountryId":"FR",
         "SiteGeo":"0000040466",
         "RRDIID":"637330A01F",
         "Name":"SARL MOAT AUTOMOBILES",
         "AddressLine1":"29 RUE DE VERDUN",
         "AddressLine2":"",
         "AddressLine3":"",
         "ZipCode":"94220",
         "City":"CHARENTON LE PONT",
         "Department":"Val-de-Marne",
         "Region":"Ile-de-France",
         "Longitude":2.40715,
         "Latitude":48.8246,
         "DistanceFromPoint":5.37
      },
      {
         "ID":"23a230a9-bab5-4a48-b250-11fa452adf65",
         "CountryId":"FR",
         "SiteGeo":"0000038218",
         "RRDIID":"020835X01F",
         "Name":"CITROËN RETAIL PANTIN",
         "AddressLine1":"68/70 AVENUE DU GENERAL LECLERC",
         "AddressLine2":"",
         "AddressLine3":"",
         "ZipCode":"93500",
         "City":"PANTIN",
         "Department":"Seine-Saint-Denis",
         "Region":"Ile-de-France",
         "Longitude":2.399729,
         "Latitude":48.89485,
         "DistanceFromPoint":5.49
      },
      {
         "ID":"0194510b-54be-4b8c-945b-ba9f70f3a3c4",
         "CountryId":"FR",
         "SiteGeo":"0000038208",
         "RRDIID":"020846J01F",
         "Name":"CITROËN RETAIL PARIS-EST ETS DE VINCENNES",
         "AddressLine1":"120 AVENUE DE PARIS",
         "AddressLine2":"",
         "AddressLine3":"",
         "ZipCode":"94300",
         "City":"VINCENNES",
         "Department":"Val-de-Marne",
         "Region":"Ile-de-France",
         "Longitude":2.425479,
         "Latitude":48.84581,
         "DistanceFromPoint":5.49
      },
      {
         "ID":"318cd37d-3002-49af-97f8-8c547dd326e4",
         "CountryId":"FR",
         "SiteGeo":"0000038247",
         "RRDIID":"058855Y01F",
         "Name":"CITROËN RETAIL PARIS VICTOR HUGO",
         "AddressLine1":"181 AVENUE VICTOR HUGO",
         "AddressLine2":"",
         "AddressLine3":"",
         "ZipCode":"75116",
         "City":"PARIS",
         "Department":"Paris",
         "Region":"Ile-de-France",
         "Longitude":2.276474,
         "Latitude":48.8658066,
         "DistanceFromPoint":5.63
      },
      {
         "ID":"448d4078-b4ea-4293-b605-dbcc2c455ecf",
         "CountryId":"FR",
         "SiteGeo":"0000038231",
         "RRDIID":"038857L01F",
         "Name":"CITROËN RETAIL PARIS RIVE GAUCHE ETS ISSY LES MOULINEAUX",
         "AddressLine1":"9 RUE ERNEST RENAN",
         "AddressLine2":"",
         "AddressLine3":"",
         "ZipCode":"92130",
         "City":"ISSY LES MOULINEAUX",
         "Department":"Hauts-de-Seine",
         "Region":"Ile-de-France",
         "Longitude":2.283375,
         "Latitude":48.8293,
         "DistanceFromPoint":5.88
      },
      {
         "ID":"43807091-5823-4f51-9017-1aa2cafc28b1",
         "CountryId":"FR",
         "SiteGeo":"0000039848",
         "RRDIID":"687830S01F",
         "Name":"SARL SIMA- CONFORT AUTO",
         "AddressLine1":"3 RUE MADAME DE SANZILLON",
         "AddressLine2":"",
         "AddressLine3":"",
         "ZipCode":"92110",
         "City":"CLICHY",
         "Department":"Hauts-de-Seine",
         "Region":"Ile-de-France",
         "Longitude":2.31344,
         "Latitude":48.9032,
         "DistanceFromPoint":5.91
      },
      {
         "ID":"5b1cbe71-56bb-494a-997c-7a761720e8c3",
         "CountryId":"FR",
         "SiteGeo":"0000039687",
         "RRDIID":"599698E01F",
         "Name":"GARAGE BRAUD",
         "AddressLine1":"34 AVENUE DU PRESIDENT WILSON",
         "AddressLine2":"",
         "AddressLine3":"",
         "ZipCode":"93210",
         "City":"LA PLAINE ST DENIS",
         "Department":"Seine-Saint-Denis",
         "Region":"Ile-de-France",
         "Longitude":2.35856,
         "Latitude":48.9107,
         "DistanceFromPoint":6.03
      },
      {
         "ID":"b9eba8cd-b671-433c-9fe1-511022485730",
         "CountryId":"FR",
         "SiteGeo":"0000040385",
         "RRDIID":"673393Z01F",
         "Name":"DEPAN\u0027SERVICES",
         "AddressLine1":"66 RUE DE LA COMMUNE DE PARIS",
         "AddressLine2":"",
         "AddressLine3":"",
         "ZipCode":"93300",
         "City":"AUBERVILLIERS",
         "Department":"Seine-Saint-Denis",
         "Region":"Ile-de-France",
         "Longitude":2.37915,
         "Latitude":48.9095,
         "DistanceFromPoint":6.2
      },
      {
         "ID":"d008068f-daed-44a1-9c31-c6f6c7b6fe23",
         "CountryId":"FR",
         "SiteGeo":"0000039891",
         "RRDIID":"264933E01F",
         "Name":"SARL GRAND GARAGE DES LILAS-GGL-",
         "AddressLine1":"91 BOULEVARD DU GENERAL LECLERC",
         "AddressLine2":"",
         "AddressLine3":"",
         "ZipCode":"93260",
         "City":"LES LILAS",
         "Department":"Seine-Saint-Denis",
         "Region":"Ile-de-France",
         "Longitude":2.42855,
         "Latitude":48.8815,
         "DistanceFromPoint":6.23
      },
      {
         "ID":"eeba4af6-2ebb-4e4a-a4ca-fe4262bc3711",
         "CountryId":"FR",
         "SiteGeo":"0000040319",
         "RRDIID":"131427F01F",
         "Name":"GARAGE DES QUAIS",
         "AddressLine1":"2 RUE CHARLES DE GAULLE",
         "AddressLine2":"",
         "AddressLine3":"",
         "ZipCode":"94140",
         "City":"ALFORTVILLE",
         "Department":"Val-de-Marne",
         "Region":"Ile-de-France",
         "Longitude":2.41206,
         "Latitude":48.8146,
         "DistanceFromPoint":6.4
      },
      {
         "ID":"a3d5e369-7729-495d-ae68-e2e1de4a2dd0",
         "CountryId":"FR",
         "SiteGeo":"0000038996",
         "RRDIID":"599670G01F",
         "Name":"AUTOS SERVICES HOCHE",
         "AddressLine1":"27 RUE HOCHE",
         "AddressLine2":"",
         "AddressLine3":"",
         "ZipCode":"92240",
         "City":"MALAKOFF",
         "Department":"Hauts-de-Seine",
         "Region":"Ile-de-France",
         "Longitude":2.29061,
         "Latitude":48.8156,
         "DistanceFromPoint":6.41
      },
      {
         "ID":"03b7012b-ece2-42e7-8306-9f87f820a8fe",
         "CountryId":"FR",
         "SiteGeo":"0000039872",
         "RRDIID":"990159J01F",
         "Name":"GARAGE MOLIERE-WILSON",
         "AddressLine1":"16 RUE MOLIERE",
         "AddressLine2":"",
         "AddressLine3":"",
         "ZipCode":"93100",
         "City":"MONTREUIL",
         "Department":"Seine-Saint-Denis",
         "Region":"Ile-de-France",
         "Longitude":2.44054,
         "Latitude":48.8585,
         "DistanceFromPoint":6.46
      },
      {
         "ID":"a2917ff1-ae12-4a75-9021-a268dc1ef0c5",
         "CountryId":"FR",
         "SiteGeo":"0000038244",
         "RRDIID":"058836C01F",
         "Name":"CITROËN RETAIL BAGNEUX",
         "AddressLine1":"136 AVENUE ARISTIDE BRIAND",
         "AddressLine2":"",
         "AddressLine3":"",
         "ZipCode":"92220",
         "City":"BAGNEUX",
         "Department":"Hauts-de-Seine",
         "Region":"Ile-de-France",
         "Longitude":2.32238,
         "Latitude":48.79789,
         "DistanceFromPoint":6.89
      },
      {
         "ID":"b0c12007-b2ac-486a-8050-ba68fed53f5b",
         "CountryId":"FR",
         "SiteGeo":"0000038228",
         "RRDIID":"020802L01F",
         "Name":"CITROËN RETAIL NEUILLY SUR SEINE",
         "AddressLine1":"124/126 AVENUE ACHILLE PERETTI",
         "AddressLine2":"",
         "AddressLine3":"",
         "ZipCode":"92200",
         "City":"NEUILLY SUR SEINE",
         "Department":"Hauts-de-Seine",
         "Region":"Ile-de-France",
         "Longitude":2.264991,
         "Latitude":48.8855858,
         "DistanceFromPoint":7.15
      },
      {
         "ID":"e6832a25-578d-4f13-87f0-64d8d67b715e",
         "CountryId":"FR",
         "SiteGeo":"0000040358",
         "RRDIID":"935774W01F",
         "Name":"GARAGE COCOZZA",
         "AddressLine1":"55 BOULEVARD DE VANVES",
         "AddressLine2":"",
         "AddressLine3":"",
         "ZipCode":"92320",
         "City":"CHATILLON",
         "Department":"Hauts-de-Seine",
         "Region":"Ile-de-France",
         "Longitude":2.28537,
         "Latitude":48.8071,
         "DistanceFromPoint":7.37
      },
      {
         "ID":"6e2944cb-25a8-4880-9481-4b08bbcfb6dc",
         "CountryId":"FR",
         "SiteGeo":"0000039456",
         "RRDIID":"679210X01F",
         "Name":"GARAGE C.A.R.",
         "AddressLine1":"35 RUE STEFFEN",
         "AddressLine2":"",
         "AddressLine3":"",
         "ZipCode":"92600",
         "City":"ASNIERES SUR SEINE",
         "Department":"Hauts-de-Seine",
         "Region":"Ile-de-France",
         "Longitude":2.280377,
         "Latitude":48.9063644,
         "DistanceFromPoint":7.63
      },
      {
         "ID":"6e66f927-ecdc-4e82-bc96-c2877d2c3b01",
         "CountryId":"FR",
         "SiteGeo":"0000038961",
         "RRDIID":"990145W01F",
         "Name":"GARAGE 2000 SA",
         "AddressLine1":"57 RUE PIERRE DE MONTREUIL",
         "AddressLine2":"",
         "AddressLine3":"",
         "ZipCode":"93100",
         "City":"MONTREUIL",
         "Department":"Seine-Saint-Denis",
         "Region":"Ile-de-France",
         "Longitude":2.45676,
         "Latitude":48.8626,
         "DistanceFromPoint":7.68
      },
      {
         "ID":"899af48a-d7ba-4fb4-bd7a-8de76b7920d1",
         "CountryId":"FR",
         "SiteGeo":"0000040595",
         "RRDIID":"990215E01F",
         "Name":"GARAGE DU PONT",
         "AddressLine1":"58 AVENUE JEAN JAURES",
         "AddressLine2":"",
         "AddressLine3":"",
         "ZipCode":"94400",
         "City":"VITRY SUR SEINE",
         "Department":"Val-de-Marne",
         "Region":"Ile-de-France",
         "Longitude":2.40058,
         "Latitude":48.7941,
         "DistanceFromPoint":7.8
      },
      {
         "ID":"812d95a8-b4a9-41a5-8074-c76ade9948ee",
         "CountryId":"FR",
         "SiteGeo":"0000038215",
         "RRDIID":"020845H01F",
         "Name":"CITROËN RETAIL PARIS NORD ST DENIS",
         "AddressLine1":"43 BOULEVARD DE LA LIBERATION",
         "AddressLine2":"",
         "AddressLine3":"",
         "ZipCode":"93200",
         "City":"SAINT DENIS",
         "Department":"Seine-Saint-Denis",
         "Region":"Ile-de-France",
         "Longitude":2.342277,
         "Latitude":48.9270668,
         "DistanceFromPoint":7.87
      },
      {
         "ID":"447f8771-ff0a-49ca-b00e-2b43d0d8403a",
         "CountryId":"FR",
         "SiteGeo":"0000038216",
         "RRDIID":"038856K01F",
         "Name":"CITROËN RETAIL PARIS-EST ETS MONTREUIL",
         "AddressLine1":"224 BD ARISTIDE BRIAND",
         "AddressLine2":"",
         "AddressLine3":"",
         "ZipCode":"93100",
         "City":"MONTREUIL",
         "Department":"Seine-Saint-Denis",
         "Region":"Ile-de-France",
         "Longitude":2.456641,
         "Latitude":48.8768654,
         "DistanceFromPoint":7.96
      },
      {
         "ID":"ff2235a5-8e2d-43a0-aae6-c4cee2998289",
         "CountryId":"FR",
         "SiteGeo":"0000038246",
         "RRDIID":"020870K01F",
         "Name":"CITROËN RETAIL PARIS SUD-OUEST ETS BOULOGNE DANJOU",
         "AddressLine1":"53 RUE DANJOU",
         "AddressLine2":"",
         "AddressLine3":"",
         "ZipCode":"92100",
         "City":"BOULOGNE BILLANCOURT",
         "Department":"Hauts-de-Seine",
         "Region":"Ile-de-France",
         "Longitude":2.249182,
         "Latitude":48.83154,
         "DistanceFromPoint":8.04
      },
      {
         "ID":"113d98c4-3a5d-49fa-a090-4ee9cbd14b2b",
         "CountryId":"FR",
         "SiteGeo":"0000038245",
         "RRDIID":"038936X01F",
         "Name":"CITROËN RETAIL BOULOGNE VAILLANT",
         "AddressLine1":"80 AVENUE EDOUARD VAILLANT",
         "AddressLine2":"",
         "AddressLine3":"",
         "ZipCode":"92100",
         "City":"BOULOGNE BILLANCOURT",
         "Department":"Hauts-de-Seine",
         "Region":"Ile-de-France",
         "Longitude":2.246409,
         "Latitude":48.8346443,
         "DistanceFromPoint":8.12
      },
      {
         "ID":"0b63a70b-49f5-4bc7-9334-6253b4e89218",
         "CountryId":"FR",
         "SiteGeo":"0000040604",
         "RRDIID":"264919V01F",
         "Name":"ETS MAVIA",
         "AddressLine1":"34 BIS AVENUE DU GENERAL LECLERC",
         "AddressLine2":"",
         "AddressLine3":"",
         "ZipCode":"94700",
         "City":"MAISONS ALFORT",
         "Department":"Val-de-Marne",
         "Region":"Ile-de-France",
         "Longitude":2.43679,
         "Latitude":48.8079,
         "DistanceFromPoint":8.23
      },
      {
         "ID":"51fab40a-34ac-404f-b28d-b4d54fcc59ab",
         "CountryId":"FR",
         "SiteGeo":"0000038641",
         "RRDIID":"990201V01F",
         "Name":"GARAGE MAGINOT",
         "AddressLine1":"30 AVENUE ANDRE MAGINOT",
         "AddressLine2":"",
         "AddressLine3":"",
         "ZipCode":"94400",
         "City":"VITRY SUR SEINE",
         "Department":"Val-de-Marne",
         "Region":"Ile-de-France",
         "Longitude":2.40106,
         "Latitude":48.7858,
         "DistanceFromPoint":8.65
      },
      {
         "ID":"88c1f69c-0819-43df-a843-d588295866fc",
         "CountryId":"FR",
         "SiteGeo":"0000040249",
         "RRDIID":"651481G01F",
         "Name":"FONTENAY AUTOMOBILES",
         "AddressLine1":"98 RUE BOUCICAUT",
         "AddressLine2":"",
         "AddressLine3":"",
         "ZipCode":"92260",
         "City":"FONTENAY AUX ROSES",
         "Department":"Hauts-de-Seine",
         "Region":"Ile-de-France",
         "Longitude":2.28616,
         "Latitude":48.7918,
         "DistanceFromPoint":8.68
      },
      {
         "ID":"e233856e-23a6-408b-bde9-dd36029e2656",
         "CountryId":"FR",
         "SiteGeo":"0000038705",
         "RRDIID":"990222A01F",
         "Name":"ETS TELLIER SA",
         "AddressLine1":"81 AVENUE CHARLES FLOUQUET",
         "AddressLine2":"",
         "AddressLine3":"",
         "ZipCode":"94240",
         "City":"L\u0027HAY LES ROSES",
         "Department":"Val-de-Marne",
         "Region":"Ile-de-France",
         "Longitude":2.33524,
         "Latitude":48.7784,
         "DistanceFromPoint":8.79
      },
      {
         "ID":"8ad4122f-ee8d-4a37-b242-ae28c657feb9",
         "CountryId":"FR",
         "SiteGeo":"0000040135",
         "RRDIID":"068230N01F",
         "Name":"PARIS AUTOMOBILE FAZIO",
         "AddressLine1":"7-11 AVENUE DES LILAS",
         "AddressLine2":"",
         "AddressLine3":"",
         "ZipCode":"93000",
         "City":"BOBIGNY",
         "Department":"Seine-Saint-Denis",
         "Region":"Ile-de-France",
         "Longitude":2.44002,
         "Latitude":48.9121,
         "DistanceFromPoint":8.9
      },
      {
         "ID":"145ab21b-603c-4476-8cfd-9e60f8a25fd7",
         "CountryId":"FR",
         "SiteGeo":"0000040025",
         "RRDIID":"990236Q01F",
         "Name":"GARAGE DOLLEY",
         "AddressLine1":"15 RUE DES BAS ROGERS",
         "AddressLine2":"",
         "AddressLine3":"",
         "ZipCode":"92150",
         "City":"SURESNES",
         "Department":"Hauts-de-Seine",
         "Region":"Ile-de-France",
         "Longitude":2.234,
         "Latitude":48.8798,
         "DistanceFromPoint":9.02
      },
      {
         "ID":"931fac66-287b-4def-b856-6651bf0f84a0",
         "CountryId":"FR",
         "SiteGeo":"0000038359",
         "RRDIID":"020588D01F",
         "Name":"CITROEN RETAIL ARGENTEUIL ETS BOIS COLOMBES",
         "AddressLine1":"249 AVENUE D\u0027ARGENTEUIL",
         "AddressLine2":"",
         "AddressLine3":"",
         "ZipCode":"92270",
         "City":"BOIS COLOMBES",
         "Department":"Hauts-de-Seine",
         "Region":"Ile-de-France",
         "Longitude":2.27779,
         "Latitude":48.9215,
         "DistanceFromPoint":9.04
      },
      {
         "ID":"6f157b79-550d-4e7f-920e-6528a1f2f152",
         "CountryId":"FR",
         "SiteGeo":"0000041978",
         "RRDIID":"968768J01F",
         "Name":"CITROEN LA GARENNE AUTO SERVICE (CLAS)",
         "AddressLine1":"48 AVENUE DU GENERAL DE GAULLE",
         "AddressLine2":"",
         "AddressLine3":"",
         "ZipCode":"92250",
         "City":"LA GARENNE COLOMBES",
         "Department":"Hauts-de-Seine",
         "Region":"Ile-de-France",
         "Longitude":2.254719,
         "Latitude":48.9103355,
         "DistanceFromPoint":9.3
      },
      {
         "ID":"2a90a3bb-7aa6-40fc-ad83-936d526615f8",
         "CountryId":"FR",
         "SiteGeo":"0000040031",
         "RRDIID":"990229D01F",
         "Name":"SARL ACV GARAGE VIOLAS",
         "AddressLine1":"13 RUE DE ST CLOUD",
         "AddressLine2":"",
         "AddressLine3":"",
         "ZipCode":"92150",
         "City":"SURESNES",
         "Department":"Hauts-de-Seine",
         "Region":"Ile-de-France",
         "Longitude":2.22519,
         "Latitude":48.867,
         "DistanceFromPoint":9.36
      },
      {
         "ID":"4e3a23dc-0d1b-4ddc-9c38-3ba5f3c3906f",
         "CountryId":"FR",
         "SiteGeo":"0000039737",
         "RRDIID":"319967R01F",
         "Name":"SACAM",
         "AddressLine1":"16 AVENUE DE ROSNY",
         "AddressLine2":"",
         "AddressLine3":"",
         "ZipCode":"93130",
         "City":"NOISY LE SEC",
         "Department":"Seine-Saint-Denis",
         "Region":"Ile-de-France",
         "Longitude":2.47175,
         "Latitude":48.8874,
         "DistanceFromPoint":9.39
      },
      {
         "ID":"ee9ecc5f-428a-4212-a23a-be610f3597dc",
         "CountryId":"FR",
         "SiteGeo":"0000040599",
         "RRDIID":"258720M01F",
         "Name":"SOCIETE DU GARAGE RABELAIS",
         "AddressLine1":"29-31 BOULEVARD DES NATIONS UNIES",
         "AddressLine2":"",
         "AddressLine3":"",
         "ZipCode":"92190",
         "City":"MEUDON",
         "Department":"Hauts-de-Seine",
         "Region":"Ile-de-France",
         "Longitude":2.23676,
         "Latitude":48.8122,
         "DistanceFromPoint":9.79
      },
      {
         "ID":"12a7c2fc-7afb-43ac-a2f5-10a7c01e31fc",
         "CountryId":"FR",
         "SiteGeo":"0000038447",
         "RRDIID":"058859C01F",
         "Name":"SAGA CRETEIL",
         "AddressLine1":"30 RUE VALENTON",
         "AddressLine2":"",
         "AddressLine3":"",
         "ZipCode":"94000",
         "City":"CRETEIL",
         "Department":"Val-de-Marne",
         "Region":"Ile-de-France",
         "Longitude":2.439008,
         "Latitude":48.78856,
         "DistanceFromPoint":9.88
      },
      {
         "ID":"7b001b5a-b4ec-4e49-876f-3407f3df5df0",
         "CountryId":"FR",
         "SiteGeo":"0000038232",
         "RRDIID":"058834A01F",
         "Name":"CITROËN RETAIL CLAMART",
         "AddressLine1":"146 AVENUE DU GENERAL DE GAULLE",
         "AddressLine2":"",
         "AddressLine3":"",
         "ZipCode":"92140",
         "City":"CLAMART",
         "Department":"Hauts-de-Seine",
         "Region":"Ile-de-France",
         "Longitude":2.261703,
         "Latitude":48.78973,
         "DistanceFromPoint":9.96
      },
      {
         "ID":"806b8611-ff41-47df-a142-2287e63f2cb2",
         "CountryId":"FR",
         "SiteGeo":"0000038763",
         "RRDIID":"990208X01F",
         "Name":"EUROPE AUTO",
         "AddressLine1":"1 RUE DU DOCTEUR ROUX",
         "AddressLine2":"",
         "AddressLine3":"",
         "ZipCode":"94600",
         "City":"CHOISY LE ROI",
         "Department":"Val-de-Marne",
         "Region":"Ile-de-France",
         "Longitude":2.40589,
         "Latitude":48.7713,
         "DistanceFromPoint":10.27
      },
      {
         "ID":"f4e892ff-488d-460f-838a-284ed498bd30",
         "CountryId":"FR",
         "SiteGeo":"0000038446",
         "RRDIID":"058815E01F",
         "Name":"SAGA CHAMPIGNY SUR MARNE",
         "AddressLine1":"23 AVENUE ROGER SALENGRO",
         "AddressLine2":"",
         "AddressLine3":"",
         "ZipCode":"94500",
         "City":"CHAMPIGNY SUR MARNE",
         "Department":"Val-de-Marne",
         "Region":"Ile-de-France",
         "Longitude":2.483792,
         "Latitude":48.82005,
         "DistanceFromPoint":10.45
      },
      {
         "ID":"668315a3-09f7-453c-ab11-1df9c3837bb2",
         "CountryId":"FR",
         "SiteGeo":"0000038240",
         "RRDIID":"020803M01F",
         "Name":"CITROËN RETAIL VENTES AUX SOCIETES PARIS",
         "AddressLine1":"33 RUE D\u0027ARRAS",
         "AddressLine2":"",
         "AddressLine3":"",
         "ZipCode":"92000",
         "City":"NANTERRE",
         "Department":"Hauts-de-Seine",
         "Region":"Ile-de-France",
         "Longitude":2.225375,
         "Latitude":48.90089,
         "DistanceFromPoint":10.5
      },
      {
         "ID":"71a47b6a-ded7-49ee-8927-13fc2c92f10b",
         "CountryId":"FR",
         "SiteGeo":"0000038227",
         "RRDIID":"020831T01F",
         "Name":"CITROËN RETAIL PARIS LA DEFENSE NANTERRE",
         "AddressLine1":"100 AVENUE FRANCOIS ARAGO",
         "AddressLine2":"",
         "AddressLine3":"",
         "ZipCode":"92000",
         "City":"NANTERRE",
         "Department":"Hauts-de-Seine",
         "Region":"Ile-de-France",
         "Longitude":2.224544,
         "Latitude":48.90087,
         "DistanceFromPoint":10.55
      },
      {
         "ID":"575ff4f1-30c3-4003-8b00-dbb73b06a372",
         "CountryId":"FR",
         "SiteGeo":"0000041368",
         "RRDIID":"038905N01F",
         "Name":"FELIX FAURE THIAIS",
         "AddressLine1":"273 ROUTE DE FONTAINEBLEAU",
         "AddressLine2":"RN 7",
         "AddressLine3":"",
         "ZipCode":"94320",
         "City":"THIAIS",
         "Department":"Val-de-Marne",
         "Region":"Ile-de-France",
         "Longitude":2.36902356,
         "Latitude":48.76151,
         "DistanceFromPoint":10.65
      },
      {
         "ID":"32cf0107-063c-4af4-ac46-d23b7d833a61",
         "CountryId":"FR",
         "SiteGeo":"0000038443",
         "RRDIID":"058829V01F",
         "Name":"CITROËN RETAIL LE BLANC MESNIL",
         "AddressLine1":"205 AV PAUL VAILLANT COUTURIER",
         "AddressLine2":"",
         "AddressLine3":"",
         "ZipCode":"93150",
         "City":"LE BLANC MESNIL",
         "Department":"Seine-Saint-Denis",
         "Region":"Ile-de-France",
         "Longitude":2.46337,
         "Latitude":48.9243,
         "DistanceFromPoint":11.08
      },
      {
         "ID":"aacc5de3-ad8d-4e1a-9bd6-715c60c6a0fe",
         "CountryId":"FR",
         "SiteGeo":"0000041987",
         "RRDIID":"324976K01F",
         "Name":"SOULIER ACHAT VENTE AUTOMOBILE SAVA",
         "AddressLine1":"111 AVENUE ARISTIDE BRIAND",
         "AddressLine2":"",
         "AddressLine3":"",
         "ZipCode":"92160",
         "City":"ANTONY",
         "Department":"Hauts-de-Seine",
         "Region":"Ile-de-France",
         "Longitude":2.30788,
         "Latitude":48.76035,
         "DistanceFromPoint":11.19
      },
      {
         "ID":"6f88dea7-dc48-4112-b4cc-8e6f6cf74d2f",
         "CountryId":"FR",
         "SiteGeo":"0000038417",
         "RRDIID":"038926L01F",
         "Name":"COURTOISE DISTRIBUTION AUTO SAS MONTMAGNY",
         "AddressLine1":"242 RUE JULES FERRY",
         "AddressLine2":"",
         "AddressLine3":"",
         "ZipCode":"95360",
         "City":"MONTMAGNY",
         "Department":"Val-d\u0027Oise",
         "Region":"Ile-de-France",
         "Longitude":2.334278,
         "Latitude":48.9567871,
         "DistanceFromPoint":11.22
      },
      {
         "ID":"08753782-2e3b-4b49-9eda-96b3f2b042a1",
         "CountryId":"FR",
         "SiteGeo":"0000038251",
         "RRDIID":"038935W01F",
         "Name":"CITROËN RETAIL PARIS SUD-OUEST ETS GARCHES",
         "AddressLine1":"4 BD DU GENERAL DE GAULLE",
         "AddressLine2":"",
         "AddressLine3":"",
         "ZipCode":"92380",
         "City":"GARCHES",
         "Department":"Hauts-de-Seine",
         "Region":"Ile-de-France",
         "Longitude":2.198258,
         "Latitude":48.84163,
         "DistanceFromPoint":11.39
      },
      {
         "ID":"4e7019ae-8aef-4cfe-b71f-b477c49336f2",
         "CountryId":"FR",
         "SiteGeo":"0000039435",
         "RRDIID":"696125H01F",
         "Name":"GARAGE VOLTAIRE",
         "AddressLine1":"8 RUE VOLTAIRE",
         "AddressLine2":"",
         "AddressLine3":"",
         "ZipCode":"92500",
         "City":"RUEIL MALMAISON",
         "Department":"Hauts-de-Seine",
         "Region":"Ile-de-France",
         "Longitude":2.19874,
         "Latitude":48.877,
         "DistanceFromPoint":11.45
      },
      {
         "ID":"e48dbd24-1b2c-4571-9079-2d3afdb18979",
         "CountryId":"FR",
         "SiteGeo":"0000038445",
         "RRDIID":"020293H01F",
         "Name":"SAGA LE PERREUX",
         "AddressLine1":"127/129 AV PIERRE BROSSOLETTE",
         "AddressLine2":"",
         "AddressLine3":"",
         "ZipCode":"94170",
         "City":"LE PERREUX SUR MARNE",
         "Department":"Val-de-Marne",
         "Region":"Ile-de-France",
         "Longitude":2.506532,
         "Latitude":48.8348427,
         "DistanceFromPoint":11.55
      },
      {
         "ID":"50758d42-10c4-4630-a2c9-9b776c88e16e",
         "CountryId":"FR",
         "SiteGeo":"0000038646",
         "RRDIID":"387256F01F",
         "Name":"GARAGE DUPLEIX",
         "AddressLine1":"80  AVENUE ANATOLE FRANCE",
         "AddressLine2":"",
         "AddressLine3":"",
         "ZipCode":"94600",
         "City":"CHOISY LE ROI",
         "Department":"Val-de-Marne",
         "Region":"Ile-de-France",
         "Longitude":2.41207,
         "Latitude":48.7598,
         "DistanceFromPoint":11.62
      },
      {
         "ID":"55e5e1c3-30f6-41ff-b1c0-425d0acee1a4",
         "CountryId":"FR",
         "SiteGeo":"0000040510",
         "RRDIID":"186184Z01F",
         "Name":"GARAGE PATRICK THEUX",
         "AddressLine1":"119 RUE DES SUISSES",
         "AddressLine2":"",
         "AddressLine3":"",
         "ZipCode":"92000",
         "City":"NANTERRE",
         "Department":"Hauts-de-Seine",
         "Region":"Ile-de-France",
         "Longitude":2.19924,
         "Latitude":48.8851,
         "DistanceFromPoint":11.63
      },
      {
         "ID":"6d55652e-1746-4150-a199-04d4f495febd",
         "CountryId":"FR",
         "SiteGeo":"0000038789",
         "RRDIID":"385896P01F",
         "Name":"STE D\u0027EXPL. DU GARAGE DU PHARE",
         "AddressLine1":"182 AVENUE DU 8 MAI 1945",
         "AddressLine2":"",
         "AddressLine3":"",
         "ZipCode":"93150",
         "City":"LE BLANC MESNIL",
         "Department":"Seine-Saint-Denis",
         "Region":"Ile-de-France",
         "Longitude":2.43693,
         "Latitude":48.9468,
         "DistanceFromPoint":11.79
      },
      {
         "ID":"9dbcb905-ff1f-4ed3-bc70-01e4091707da",
         "CountryId":"FR",
         "SiteGeo":"0000038449",
         "RRDIID":"058813C01F",
         "Name":"P BUGNOT VILLEMOMBLE",
         "AddressLine1":"36 AVENUE DU RAINCY",
         "AddressLine2":"",
         "AddressLine3":"",
         "ZipCode":"93250",
         "City":"VILLEMOMBLE",
         "Department":"Seine-Saint-Denis",
         "Region":"Ile-de-France",
         "Longitude":2.509292,
         "Latitude":48.8870277,
         "DistanceFromPoint":11.98
      },
      {
         "ID":"dd36af85-fac8-4636-9a52-5993e9a80d6d",
         "CountryId":"FR",
         "SiteGeo":"0000038958",
         "RRDIID":"614408J01F",
         "Name":"G.G.A SARL",
         "AddressLine1":"16 AVENUE DU 18 JUIN 1940",
         "AddressLine2":"",
         "AddressLine3":"",
         "ZipCode":"92500",
         "City":"RUEIL MALMAISON",
         "Department":"Hauts-de-Seine",
         "Region":"Ile-de-France",
         "Longitude":2.18893,
         "Latitude":48.8686,
         "DistanceFromPoint":12.02
      },
      {
         "ID":"80d8759b-4fd3-4b25-813f-1f22b3ce73c3",
         "CountryId":"FR",
         "SiteGeo":"0000038450",
         "RRDIID":"020086H01F",
         "Name":"P BUGNOT NEUILLY PLAISANCE",
         "AddressLine1":"130/132 AVENUE DU MARECHAL FOCH",
         "AddressLine2":"",
         "AddressLine3":"",
         "ZipCode":"93360",
         "City":"NEUILLY PLAISANCE",
         "Department":"Seine-Saint-Denis",
         "Region":"Ile-de-France",
         "Longitude":2.517575,
         "Latitude":48.8594,
         "DistanceFromPoint":12.1
      },
      {
         "ID":"e48b9f21-32f4-4ba4-b17e-aa335bb7ce1b",
         "CountryId":"FR",
         "SiteGeo":"0000039278",
         "RRDIID":"990194U01F",
         "Name":"GARAGE DE L ARC EN CIEL",
         "AddressLine1":"21 RUE NOTRE DAME",
         "AddressLine2":"",
         "AddressLine3":"",
         "ZipCode":"94150",
         "City":"RUNGIS",
         "Department":"Val-de-Marne",
         "Region":"Ile-de-France",
         "Longitude":2.35054,
         "Latitude":48.7476,
         "DistanceFromPoint":12.12
      },
      {
         "ID":"1ae52677-07f0-453c-8f25-51e578e592b3",
         "CountryId":"FR",
         "SiteGeo":"0000040390",
         "RRDIID":"647736L01F",
         "Name":"M.E.A.",
         "AddressLine1":"430 AVENUE DE LA DIVISION LECLERC",
         "AddressLine2":"",
         "AddressLine3":"",
         "ZipCode":"92290",
         "City":"CHATENAY MALABRY",
         "Department":"Hauts-de-Seine",
         "Region":"Ile-de-France",
         "Longitude":2.25199,
         "Latitude":48.7681,
         "DistanceFromPoint":12.28
      },
      {
         "ID":"a4e7bc53-7159-4aa9-aaaf-c14003176070",
         "CountryId":"FR",
         "SiteGeo":"0000038953",
         "RRDIID":"599761B01F",
         "Name":"RALLYE GARAGE",
         "AddressLine1":"5 RUE EDOUARD VAILLANT",
         "AddressLine2":"",
         "AddressLine3":"",
         "ZipCode":"95870",
         "City":"BEZONS",
         "Department":"Val-d\u0027Oise",
         "Region":"Ile-de-France",
         "Longitude":2.22305,
         "Latitude":48.928,
         "DistanceFromPoint":12.34
      },
      {
         "ID":"9fbaea6a-a177-4353-a9e2-330106e415db",
         "CountryId":"FR",
         "SiteGeo":"0000039808",
         "RRDIID":"599733C01F",
         "Name":"STE EXPL GARAGE BEAUREPAIRE",
         "AddressLine1":"4 AVENUE RASPAIL",
         "AddressLine2":"",
         "AddressLine3":"",
         "ZipCode":"94100",
         "City":"SAINT MAUR DES FOSSES",
         "Department":"Val-de-Marne",
         "Region":"Ile-de-France",
         "Longitude":2.48378,
         "Latitude":48.7864,
         "DistanceFromPoint":12.4
      },
      {
         "ID":"15caa288-fa8d-454c-b488-4f68ca199873",
         "CountryId":"FR",
         "SiteGeo":"0000040282",
         "RRDIID":"714744W01F",
         "Name":"GARAGE DE LA BARRE SNGV",
         "AddressLine1":"18 AVENUE DE LA DIVISION LECLERC",
         "AddressLine2":"",
         "AddressLine3":"",
         "ZipCode":"95170",
         "City":"DEUIL LA BARRE",
         "Department":"Val-d\u0027Oise",
         "Region":"Ile-de-France",
         "Longitude":2.31801,
         "Latitude":48.9666,
         "DistanceFromPoint":12.48
      },
      {
         "ID":"93538eaf-bb77-4f7a-9a8f-30a40add3a70",
         "CountryId":"FR",
         "SiteGeo":"0000040517",
         "RRDIID":"913339K01F",
         "Name":"SN AUTO AVENIR",
         "AddressLine1":"75 RUE JEAN JAURES",
         "AddressLine2":"",
         "AddressLine3":"",
         "ZipCode":"93240",
         "City":"STAINS",
         "Department":"Seine-Saint-Denis",
         "Region":"Ile-de-France",
         "Longitude":2.38265,
         "Latitude":48.9675,
         "DistanceFromPoint":12.53
      },
      {
         "ID":"420f1716-02c8-4a7c-810e-13f689cb3df1",
         "CountryId":"FR",
         "SiteGeo":"0000040626",
         "RRDIID":"264947D01F",
         "Name":"GARAGE NONNEVILLE SA",
         "AddressLine1":"205 AVENUE NONNEVILLE",
         "AddressLine2":"",
         "AddressLine3":"",
         "ZipCode":"93600",
         "City":"AULNAY SOUS BOIS",
         "Department":"Seine-Saint-Denis",
         "Region":"Ile-de-France",
         "Longitude":2.49308,
         "Latitude":48.9209,
         "DistanceFromPoint":12.54
      },
      {
         "ID":"6d63cabe-8f56-4715-be72-5cad7e8e57b7",
         "CountryId":"FR",
         "SiteGeo":"0000041371",
         "RRDIID":"038903L01F",
         "Name":"FELIX FAURE BEZONS",
         "AddressLine1":"30 RUE EMILE ZOLA",
         "AddressLine2":"",
         "AddressLine3":"",
         "ZipCode":"95870",
         "City":"BEZONS",
         "Department":"Val-d\u0027Oise",
         "Region":"Ile-de-France",
         "Longitude":2.213788,
         "Latitude":48.9231567,
         "DistanceFromPoint":12.54
      },
      {
         "ID":"17485a05-5ea5-4e6a-88e5-b1fe72f4920f",
         "CountryId":"FR",
         "SiteGeo":"0000039022",
         "RRDIID":"879631W01F",
         "Name":"GARAGE DE LA GRANDE CEINTURE",
         "AddressLine1":"10 RUE DE LA LUITTE",
         "AddressLine2":"",
         "AddressLine3":"",
         "ZipCode":"95100",
         "City":"ARGENTEUIL",
         "Department":"Val-d\u0027Oise",
         "Region":"Ile-de-France",
         "Longitude":2.27788,
         "Latitude":48.9586,
         "DistanceFromPoint":12.57
      },
      {
         "ID":"55f28597-d886-4a35-b631-65e168ed149b",
         "CountryId":"FR",
         "SiteGeo":"0000039766",
         "RRDIID":"264905G01F",
         "Name":"GRAND GARAGE DU LAVOIR SARL",
         "AddressLine1":"24 RUE LOUIS BONIN",
         "AddressLine2":"",
         "AddressLine3":"",
         "ZipCode":"94310",
         "City":"ORLY",
         "Department":"Val-de-Marne",
         "Region":"Ile-de-France",
         "Longitude":2.39321,
         "Latitude":48.7446,
         "DistanceFromPoint":12.81
      },
      {
         "ID":"ad254c44-001a-4c0a-9ebb-efea89a27b12",
         "CountryId":"FR",
         "SiteGeo":"0000038360",
         "RRDIID":"058830W01F",
         "Name":"CITROËN RETAIL ARGENTEUIL",
         "AddressLine1":"79 BOULEVARD JEAN ALLEMANE",
         "AddressLine2":"",
         "AddressLine3":"",
         "ZipCode":"95100",
         "City":"ARGENTEUIL",
         "Department":"Val-d\u0027Oise",
         "Region":"Ile-de-France",
         "Longitude":2.254834,
         "Latitude":48.95477,
         "DistanceFromPoint":13.03
      },
      {
         "ID":"754a8616-464f-437e-b54d-0c2ba252b603",
         "CountryId":"FR",
         "SiteGeo":"0000041041",
         "RRDIID":"658830V01F",
         "Name":"GARAGE DES FLORALIES",
         "AddressLine1":"71/73 AVENUE HENRI BARBUSSE",
         "AddressLine2":"",
         "AddressLine3":"",
         "ZipCode":"93220",
         "City":"GAGNY",
         "Department":"Seine-Saint-Denis",
         "Region":"Ile-de-France",
         "Longitude":2.52815986,
         "Latitude":48.8862076,
         "DistanceFromPoint":13.28
      },
      {
         "ID":"159b2a7f-16e0-4cbe-8aa9-b22fbb0cf004",
         "CountryId":"FR",
         "SiteGeo":"0000040526",
         "RRDIID":"820320C01F",
         "Name":"GARAGE MOZART",
         "AddressLine1":"19 RUE MOZART",
         "AddressLine2":"",
         "AddressLine3":"",
         "ZipCode":"78800",
         "City":"HOUILLES",
         "Department":"Yvelines",
         "Region":"Ile-de-France",
         "Longitude":2.19652557,
         "Latitude":48.9190369,
         "DistanceFromPoint":13.33
      },
      {
         "ID":"350ac006-f8c2-4774-a7e1-158a7f4da14f",
         "CountryId":"FR",
         "SiteGeo":"0000038764",
         "RRDIID":"136981M01F",
         "Name":"GARAGE DE L\u0027EUROPE",
         "AddressLine1":"144 AVENUE THIERS",
         "AddressLine2":"",
         "AddressLine3":"",
         "ZipCode":"93340",
         "City":"LE RAINCY",
         "Department":"Seine-Saint-Denis",
         "Region":"Ile-de-France",
         "Longitude":2.52519,
         "Latitude":48.8963,
         "DistanceFromPoint":13.4
      },
      {
         "ID":"d9e47f92-f64c-443a-8798-903b9a28d4c0",
         "CountryId":"FR",
         "SiteGeo":"0000040614",
         "RRDIID":"211207U01F",
         "Name":"AUTO GARAGE DE LA GARE",
         "AddressLine1":"92 BOULEVARD MAURICE BERTEAUX",
         "AddressLine2":"",
         "AddressLine3":"",
         "ZipCode":"95110",
         "City":"SANNOIS",
         "Department":"Val-d\u0027Oise",
         "Region":"Ile-de-France",
         "Longitude":2.27228,
         "Latitude":48.9675,
         "DistanceFromPoint":13.64
      },
      {
         "ID":"94b96884-505a-40b4-8219-9688aafc0c03",
         "CountryId":"FR",
         "SiteGeo":"0000040624",
         "RRDIID":"034394J01F",
         "Name":"FAURE S.A.",
         "AddressLine1":"AVENUE DU 19 MARS 1962",
         "AddressLine2":"",
         "AddressLine3":"",
         "ZipCode":"94380",
         "City":"BONNEUIL SUR MARNE",
         "Department":"Val-de-Marne",
         "Region":"Ile-de-France",
         "Longitude":2.48997,
         "Latitude":48.7739,
         "DistanceFromPoint":13.65
      },
      {
         "ID":"d30a8e1b-350c-4a32-9ebe-14775aeed534",
         "CountryId":"FR",
         "SiteGeo":"0000038905",
         "RRDIID":"599684V01F",
         "Name":"SARL FRAGA - GARAGE DE L\u0027AVENUE",
         "AddressLine1":"115 AVENUE ARISTIDE BRIAND",
         "AddressLine2":"",
         "AddressLine3":"",
         "ZipCode":"93190",
         "City":"LIVRY GARGAN",
         "Department":"Seine-Saint-Denis",
         "Region":"Ile-de-France",
         "Longitude":2.52157,
         "Latitude":48.9123,
         "DistanceFromPoint":13.84
      },
      {
         "ID":"7cd6f327-f3b6-4937-850d-d027ed2789af",
         "CountryId":"FR",
         "SiteGeo":"0000039780",
         "RRDIID":"264926X01F",
         "Name":"GIROD ROUX S.A.R.L",
         "AddressLine1":"27 BOULEVARD DU TEMPLE",
         "AddressLine2":"",
         "AddressLine3":"",
         "ZipCode":"93390",
         "City":"CLICHY SOUS BOIS",
         "Department":"Seine-Saint-Denis",
         "Region":"Ile-de-France",
         "Longitude":2.52744,
         "Latitude":48.9044,
         "DistanceFromPoint":13.87
      },
      {
         "ID":"a325a9ed-a6a9-446d-bfc4-a3d7ccb42c0c",
         "CountryId":"FR",
         "SiteGeo":"0000040611",
         "RRDIID":"766332W01F",
         "Name":"GARAGE DU GRAND CHENE",
         "AddressLine1":"118 RUE D ESTIENNE D\u0027ORVES",
         "AddressLine2":"",
         "AddressLine3":"",
         "ZipCode":"91370",
         "City":"VERRIERES LE BUISSON",
         "Department":"Essonne",
         "Region":"Ile-de-France",
         "Longitude":2.26321,
         "Latitude":48.7449,
         "DistanceFromPoint":14.03
      },
      {
         "ID":"d8344be2-0e85-435e-a21b-66121f8382c7",
         "CountryId":"FR",
         "SiteGeo":"0000038469",
         "RRDIID":"020110J01F",
         "Name":"CITROËN RETAIL SARCELLES",
         "AddressLine1":"1 AVENUE PAUL LANGEVIN",
         "AddressLine2":"",
         "AddressLine3":"",
         "ZipCode":"95200",
         "City":"SARCELLES",
         "Department":"Val-d\u0027Oise",
         "Region":"Ile-de-France",
         "Longitude":2.37876,
         "Latitude":48.9823,
         "DistanceFromPoint":14.11
      },
      {
         "ID":"a0a79077-62a3-468c-b75b-2afb4150c17d",
         "CountryId":"FR",
         "SiteGeo":"0000040386",
         "RRDIID":"055080V01F",
         "Name":"GARAGE DE L\u0027AVENUE",
         "AddressLine1":"35 RUE DE LA REPUBLIQUE",
         "AddressLine2":"",
         "AddressLine3":"",
         "ZipCode":"95410",
         "City":"GROSLAY",
         "Department":"Val-d\u0027Oise",
         "Region":"Ile-de-France",
         "Longitude":2.36127,
         "Latitude":48.985,
         "DistanceFromPoint":14.29
      },
      {
         "ID":"9031d61d-1367-4152-a08a-3e06f51b0291",
         "CountryId":"FR",
         "SiteGeo":"0000044212",
         "RRDIID":"598832E01F",
         "Name":"AUTOMOBILES DU KIOSQUE",
         "AddressLine1":"13 PLACE AMEDEE SOUPAULT",
         "AddressLine2":"",
         "AddressLine3":"",
         "ZipCode":"94290",
         "City":"VILLENEUVE LE ROI",
         "Department":"Val-de-Marne",
         "Region":"Ile-de-France",
         "Longitude":2.418103,
         "Latitude":48.7345848,
         "DistanceFromPoint":14.4
      },
      {
         "ID":"992dea7e-78ce-449c-b311-f92e7eb4f972",
         "CountryId":"FR",
         "SiteGeo":"0000040634",
         "RRDIID":"385868T01F",
         "Name":"BERGER AUTOMOBILES",
         "AddressLine1":"64 RUE DES VIGNES BLANCHES",
         "AddressLine2":"",
         "AddressLine3":"",
         "ZipCode":"78420",
         "City":"CARRIERES SUR SEINE",
         "Department":"Yvelines",
         "Region":"Ile-de-France",
         "Longitude":2.17275,
         "Latitude":48.9135,
         "DistanceFromPoint":14.57
      },
      {
         "ID":"be2fd5f5-9ded-4094-8c58-933ca59ecfc1",
         "CountryId":"FR",
         "SiteGeo":"0000038769",
         "RRDIID":"385889W01F",
         "Name":"GARAGE RICHELIEU SARL",
         "AddressLine1":"79 ALLEE RICHELIEU",
         "AddressLine2":"",
         "AddressLine3":"",
         "ZipCode":"93270",
         "City":"SEVRAN",
         "Department":"Seine-Saint-Denis",
         "Region":"Ile-de-France",
         "Longitude":2.52308,
         "Latitude":48.9262,
         "DistanceFromPoint":14.69
      },
      {
         "ID":"e8c1fd46-6b21-4c25-a819-421cb70b7b98",
         "CountryId":"FR",
         "SiteGeo":"0000039576",
         "RRDIID":"342466W01F",
         "Name":"GARAGE BLSM",
         "AddressLine1":"55 RUE DE PARIS",
         "AddressLine2":"",
         "AddressLine3":"",
         "ZipCode":"91570",
         "City":"BIEVRES",
         "Department":"Essonne",
         "Region":"Ile-de-France",
         "Longitude":2.21909,
         "Latitude":48.7577,
         "DistanceFromPoint":14.7
      },
      {
         "ID":"dee596d9-c695-4e20-9e46-05e002b55a19",
         "CountryId":"FR",
         "SiteGeo":"0000045729",
         "RRDIID":"342109H01F",
         "Name":"AUTOMOBILES ELYSEE 2",
         "AddressLine1":"18 AVENUE DE LA JONCHERE",
         "AddressLine2":"",
         "AddressLine3":"",
         "ZipCode":"78170",
         "City":"LA CELLE ST CLOUD",
         "Department":"Yvelines",
         "Region":"Ile-de-France",
         "Longitude":2.14882,
         "Latitude":48.8594437,
         "DistanceFromPoint":14.88
      },
      {
         "ID":"10ba86a5-09a0-497f-930d-846cdc3c4156",
         "CountryId":"FR",
         "SiteGeo":"0000038234",
         "RRDIID":"020819E01F",
         "Name":"CITROËN RETAIL VENTES AUX SOCIETES PARIS 2",
         "AddressLine1":"27 BIS AVENUE LOUIS BREGUET",
         "AddressLine2":"",
         "AddressLine3":"",
         "ZipCode":"78140",
         "City":"VELIZY VILLACOUBLAY",
         "Department":"Yvelines",
         "Region":"Ile-de-France",
         "Longitude":2.182766,
         "Latitude":48.78105,
         "DistanceFromPoint":14.98
      },
      {
         "ID":"d57b907b-da4b-4466-bf61-99710461c1b9",
         "CountryId":"FR",
         "SiteGeo":"0000038233",
         "RRDIID":"020829R01F",
         "Name":"CITROËN RETAIL VELIZY",
         "AddressLine1":"27 TER AVENUE LOUIS BREGUET",
         "AddressLine2":"",
         "AddressLine3":"",
         "ZipCode":"78140",
         "City":"VELIZY",
         "Department":"Yvelines",
         "Region":"Ile-de-France",
         "Longitude":2.18209,
         "Latitude":48.7811432,
         "DistanceFromPoint":15.02
      },
      {
         "ID":"eccd197a-c96b-4c19-ae0a-86e4fd61007b",
         "CountryId":"FR",
         "SiteGeo":"0000038962",
         "RRDIID":"264912U01F",
         "Name":"GRANDRU AUTOMOBILES SARL",
         "AddressLine1":"15 ROUTE DE LA LIBERATION",
         "AddressLine2":"",
         "AddressLine3":"",
         "ZipCode":"94430",
         "City":"CHENNEVIERES SUR MARNE",
         "Department":"Val-de-Marne",
         "Region":"Ile-de-France",
         "Longitude":2.53999,
         "Latitude":48.8019,
         "DistanceFromPoint":15.03
      },
      {
         "ID":"d98c73ff-e8bf-45da-bee7-2085ab814307",
         "CountryId":"FR",
         "SiteGeo":"0000040328",
         "RRDIID":"325424X01F",
         "Name":"SARL GARAGE DU CENTRE S. PAUCHARD",
         "AddressLine1":"11 RUE THEOPHILE VACHER",
         "AddressLine2":"",
         "AddressLine3":"",
         "ZipCode":"95160",
         "City":"MONTMORENCY",
         "Department":"Val-d\u0027Oise",
         "Region":"Ile-de-France",
         "Longitude":2.32156,
         "Latitude":48.9912,
         "DistanceFromPoint":15.13
      },
      {
         "ID":"dac7d1ee-43a6-449d-86a4-8d39e90fea07",
         "CountryId":"FR",
         "SiteGeo":"0000040124",
         "RRDIID":"341165G01F",
         "Name":"NOISY AUTO CONCEPT",
         "AddressLine1":"46 AVENUE EMILE COSSONNEAU",
         "AddressLine2":"",
         "AddressLine3":"",
         "ZipCode":"93160",
         "City":"NOISY LE GRAND",
         "Department":"Seine-Saint-Denis",
         "Region":"Ile-de-France",
         "Longitude":2.55884,
         "Latitude":48.8489,
         "DistanceFromPoint":15.14
      },
      {
         "ID":"f1518c87-6ca6-4d97-8f63-a33baae52bd2",
         "CountryId":"FR",
         "SiteGeo":"0000038236",
         "RRDIID":"058832Y01F",
         "Name":"CITROËN RETAIL VERSAILLES",
         "AddressLine1":"124 AVENUE DES ETATS UNIS",
         "AddressLine2":"",
         "AddressLine3":"",
         "ZipCode":"78000",
         "City":"VERSAILLES",
         "Department":"Yvelines",
         "Region":"Ile-de-France",
         "Longitude":2.153299,
         "Latitude":48.8123665,
         "DistanceFromPoint":15.37
      },
      {
         "ID":"da6f788b-75f1-4a7b-bec3-b65c4ff73b1a",
         "CountryId":"FR",
         "SiteGeo":"0000038879",
         "RRDIID":"038927M01F",
         "Name":"ETS DEBOUZY BOISSY ST LEGER",
         "AddressLine1":"8 RUE DU 8 MAI 1945",
         "AddressLine2":"",
         "AddressLine3":"",
         "ZipCode":"94470",
         "City":"BOISSY ST LEGER",
         "Department":"Val-de-Marne",
         "Region":"Ile-de-France",
         "Longitude":2.50481677,
         "Latitude":48.75755,
         "DistanceFromPoint":15.69
      },
      {
         "ID":"5d59b5cf-5e74-406e-937d-e3170aa08f37",
         "CountryId":"FR",
         "SiteGeo":"0000038193",
         "RRDIID":"020804N01F",
         "Name":"CITROËN RETAIL MASSY",
         "AddressLine1":"AV MAL DE LATTRE DE TASSIGNY",
         "AddressLine2":"",
         "AddressLine3":"",
         "ZipCode":"91300",
         "City":"MASSY",
         "Department":"Essonne",
         "Region":"Ile-de-France",
         "Longitude":2.287881,
         "Latitude":48.72186,
         "DistanceFromPoint":15.71
      },
      {
         "ID":"f1e58b77-e853-466b-9a74-d96cdaf0a142",
         "CountryId":"FR",
         "SiteGeo":"0000039070",
         "RRDIID":"766185J01F",
         "Name":"SARL KM",
         "AddressLine1":"23 RUE GASTON VOILLEREAU",
         "AddressLine2":"",
         "AddressLine3":"",
         "ZipCode":"78360",
         "City":"MONTESSON",
         "Department":"Yvelines",
         "Region":"Ile-de-France",
         "Longitude":2.15145,
         "Latitude":48.9076,
         "DistanceFromPoint":15.74
      },
      {
         "ID":"dcda4db5-9d67-438c-9f82-cb634ed73d31",
         "CountryId":"FR",
         "SiteGeo":"0000040674",
         "RRDIID":"753710A01F",
         "Name":"GARAGE VALMY",
         "AddressLine1":"117 AVENUE DE TOBROUCK",
         "AddressLine2":"",
         "AddressLine3":"",
         "ZipCode":"78500",
         "City":"SARTROUVILLE",
         "Department":"Yvelines",
         "Region":"Ile-de-France",
         "Longitude":2.15873,
         "Latitude":48.926,
         "DistanceFromPoint":16.11
      },
      {
         "ID":"d5ff4588-131a-40ba-965e-4898feb1c2c1",
         "CountryId":"FR",
         "SiteGeo":"0000038442",
         "RRDIID":"020269G01F",
         "Name":"CITROËN RETAIL AULNAY SOUS BOIS",
         "AddressLine1":"153 ROUTE DE MITRY",
         "AddressLine2":"",
         "AddressLine3":"",
         "ZipCode":"93600",
         "City":"AULNAY SOUS BOIS",
         "Department":"Seine-Saint-Denis",
         "Region":"Ile-de-France",
         "Longitude":2.521899,
         "Latitude":48.9500237,
         "DistanceFromPoint":16.18
      },
      {
         "ID":"87662537-4434-41fe-9508-b8ae18e03e9d",
         "CountryId":"FR",
         "SiteGeo":"0000038358",
         "RRDIID":"038925K01F",
         "Name":"OUEST AUTOMOBILE DISTRIBUTION SARTROUVILLE",
         "AddressLine1":"140/148 AVENUE MAURICE BERTEAUX",
         "AddressLine2":"",
         "AddressLine3":"",
         "ZipCode":"78500",
         "City":"SARTROUVILLE",
         "Department":"Yvelines",
         "Region":"Ile-de-France",
         "Longitude":2.169172,
         "Latitude":48.939,
         "DistanceFromPoint":16.22
      },
      {
         "ID":"5d567510-781a-4bae-b34f-34a1072ef58f",
         "CountryId":"FR",
         "SiteGeo":"0000038169",
         "RRDIID":"020411L01F",
         "Name":"PACHA SAS (PARIS CHELLES AUTOMOBILES)",
         "AddressLine1":"59/61 AVENUE DU MARECHAL FOCH",
         "AddressLine2":"",
         "AddressLine3":"",
         "ZipCode":"77500",
         "City":"CHELLES",
         "Department":"Seine-et-Marne",
         "Region":"Ile-de-France",
         "Longitude":2.573376,
         "Latitude":48.8684769,
         "DistanceFromPoint":16.23
      },
      {
         "ID":"72601b3b-a634-45cb-b700-9fd02f97e4e4",
         "CountryId":"FR",
         "SiteGeo":"0000038988",
         "RRDIID":"211242D01F",
         "Name":"AUTO RELAIS DES LANDES SARL",
         "AddressLine1":"52 ROUTE DU VESINET",
         "AddressLine2":"",
         "AddressLine3":"",
         "ZipCode":"78400",
         "City":"CHATOU",
         "Department":"Yvelines",
         "Region":"Ile-de-France",
         "Longitude":2.1388,
         "Latitude":48.9031,
         "DistanceFromPoint":16.44
      },
      {
         "ID":"0d8c5e05-e008-4a2a-961d-dd0095b2f7ab",
         "CountryId":"FR",
         "SiteGeo":"0000038067",
         "RRDIID":"020335D01F",
         "Name":"BELLE ETOILE AUTOMOBILE S.A.S JEAN VIELCANET",
         "AddressLine1":"5 BOULEVARD DE FONTAINEBLEAU",
         "AddressLine2":"",
         "AddressLine3":"",
         "ZipCode":"91550",
         "City":"PARAY VIEILLE POSTE",
         "Department":"Essonne",
         "Region":"Ile-de-France",
         "Longitude":2.371073,
         "Latitude":48.7079544,
         "DistanceFromPoint":16.59
      },
      {
         "ID":"eec77764-8917-4731-a0f4-3fb1ceeed9d9",
         "CountryId":"FR",
         "SiteGeo":"0000039179",
         "RRDIID":"599768T01F",
         "Name":"S.A.R.L ALSER",
         "AddressLine1":"27 BOULEVARD JOFFRE",
         "AddressLine2":"",
         "AddressLine3":"",
         "ZipCode":"95240",
         "City":"CORMEILLES EN PARISIS",
         "Department":"Val-d\u0027Oise",
         "Region":"Ile-de-France",
         "Longitude":2.19797,
         "Latitude":48.9673,
         "DistanceFromPoint":16.69
      },
      {
         "ID":"dc3d19bc-c47b-48eb-ab07-c7937439ad63",
         "CountryId":"FR",
         "SiteGeo":"0000039323",
         "RRDIID":"264891F01F",
         "Name":"GARAGE AUBONY ET FILS SARL",
         "AddressLine1":"64 ROUTE DE MONTLIGNON",
         "AddressLine2":"",
         "AddressLine3":"",
         "ZipCode":"95600",
         "City":"EAUBONNE",
         "Department":"Val-d\u0027Oise",
         "Region":"Ile-de-France",
         "Longitude":2.27873,
         "Latitude":49.0007,
         "DistanceFromPoint":16.9
      },
      {
         "ID":"6b27ce8d-b82c-4c35-bfc2-624f887080e9",
         "CountryId":"FR",
         "SiteGeo":"0000040602",
         "RRDIID":"385910M01F",
         "Name":"JEAN JAURES AUTO",
         "AddressLine1":"33 AVENUE JEAN JAURES",
         "AddressLine2":"",
         "AddressLine3":"",
         "ZipCode":"91120",
         "City":"PALAISEAU",
         "Department":"Essonne",
         "Region":"Ile-de-France",
         "Longitude":2.25262,
         "Latitude":48.7188,
         "DistanceFromPoint":16.97
      },
      {
         "ID":"7d8055df-44ca-4b92-a4a4-efb737fd0c63",
         "CountryId":"FR",
         "SiteGeo":"0000038878",
         "RRDIID":"082867U01F",
         "Name":"ETS DEBOUZY NOISEAU",
         "AddressLine1":"2 QUATER GRANDE RUE",
         "AddressLine2":"",
         "AddressLine3":"",
         "ZipCode":"94880",
         "City":"NOISEAU",
         "Department":"Val-de-Marne",
         "Region":"Ile-de-France",
         "Longitude":2.5423,
         "Latitude":48.7677,
         "DistanceFromPoint":17.07
      },
      {
         "ID":"2c55af53-52e9-4682-921a-d44b9df6b020",
         "CountryId":"FR",
         "SiteGeo":"0000040125",
         "RRDIID":"343964Z01F",
         "Name":"GARAGE DES 4 COMMUNES",
         "AddressLine1":"6 RUE PAUL LAFARGUE",
         "AddressLine2":"",
         "AddressLine3":"",
         "ZipCode":"91550",
         "City":"PARAY VIEILLE POSTE",
         "Department":"Essonne",
         "Region":"Ile-de-France",
         "Longitude":2.35246,
         "Latitude":48.7029,
         "DistanceFromPoint":17.09
      },
      {
         "ID":"2953cc55-518f-4645-864b-0fc286083fab",
         "CountryId":"FR",
         "SiteGeo":"0000039203",
         "RRDIID":"766178P01F",
         "Name":"GARAGE RAO",
         "AddressLine1":"185 AV DE LA REPUBLIQUE",
         "AddressLine2":"",
         "AddressLine3":"",
         "ZipCode":"78500",
         "City":"SARTROUVILLE",
         "Department":"Yvelines",
         "Region":"Ile-de-France",
         "Longitude":2.14831,
         "Latitude":48.9322,
         "DistanceFromPoint":17.11
      },
      {
         "ID":"4148a3e9-e648-4f4d-ac82-8fd48853e9dd",
         "CountryId":"FR",
         "SiteGeo":"0000038739",
         "RRDIID":"211214V01F",
         "Name":"GARAGE GUENEGO SARL",
         "AddressLine1":"82 RUE DU GROS NOYER",
         "AddressLine2":"",
         "AddressLine3":"",
         "ZipCode":"95120",
         "City":"ERMONT",
         "Department":"Val-d\u0027Oise",
         "Region":"Ile-de-France",
         "Longitude":2.25916,
         "Latitude":48.9985,
         "DistanceFromPoint":17.18
      },
      {
         "ID":"677fab41-3b1f-4504-9266-6a27411e647a",
         "CountryId":"FR",
         "SiteGeo":"0000039188",
         "RRDIID":"216768T01F",
         "Name":"SARL RFJ-AUTO  - GARAGE DE LA POUDRERIE",
         "AddressLine1":"51 RUE DE MEAUX",
         "AddressLine2":"",
         "AddressLine3":"",
         "ZipCode":"93410",
         "City":"VAUJOURS",
         "Department":"Seine-Saint-Denis",
         "Region":"Ile-de-France",
         "Longitude":2.56487,
         "Latitude":48.9344,
         "DistanceFromPoint":17.79
      },
      {
         "ID":"df2a922b-1dc1-4c0b-b29d-51210c405f25",
         "CountryId":"FR",
         "SiteGeo":"0000040030",
         "RRDIID":"706540D01F",
         "Name":"CHAMPLAN AUTOMOBILE",
         "AddressLine1":"91 BIS ROUTE DE VERSAILLES",
         "AddressLine2":"",
         "AddressLine3":"",
         "ZipCode":"91160",
         "City":"CHAMPLAN",
         "Department":"Essonne",
         "Region":"Ile-de-France",
         "Longitude":2.28461,
         "Latitude":48.7021,
         "DistanceFromPoint":17.88
      },
      {
         "ID":"44e52201-045e-4fdb-9b30-eba2daca4e39",
         "CountryId":"FR",
         "SiteGeo":"0000038689",
         "RRDIID":"848815A01F",
         "Name":"GARAGE ST HONORE VERSAILLES",
         "AddressLine1":"25 BIS RUE SAINT HONORE",
         "AddressLine2":"",
         "AddressLine3":"",
         "ZipCode":"78000",
         "City":"VERSAILLES",
         "Department":"Yvelines",
         "Region":"Ile-de-France",
         "Longitude":2.12419,
         "Latitude":48.7969,
         "DistanceFromPoint":17.96
      },
      {
         "ID":"ce5c2423-a371-436a-8938-317092a4f94c",
         "CountryId":"FR",
         "SiteGeo":"0000040179",
         "RRDIID":"708224J01F",
         "Name":"AUTO SERVICE PORT MARLY",
         "AddressLine1":"27 ROUTE DE VERSAILLES",
         "AddressLine2":"",
         "AddressLine3":"",
         "ZipCode":"78560",
         "City":"LE PORT MARLY",
         "Department":"Yvelines",
         "Region":"Ile-de-France",
         "Longitude":2.10667,
         "Latitude":48.8775,
         "DistanceFromPoint":18.11
      },
      {
         "ID":"0cf6b0b3-3770-4f86-bbec-9c64fc6a3c88",
         "CountryId":"FR",
         "SiteGeo":"0000040621",
         "RRDIID":"235545P01F",
         "Name":"ETS GEORGES SELIER ET FILS",
         "AddressLine1":"4 AVENUE DE LONGUEIL",
         "AddressLine2":"",
         "AddressLine3":"",
         "ZipCode":"78600",
         "City":"MAISONS LAFFITTE",
         "Department":"Yvelines",
         "Region":"Ile-de-France",
         "Longitude":2.14701,
         "Latitude":48.9479,
         "DistanceFromPoint":18.11
      },
      {
         "ID":"ea200c1a-c60d-4ee4-966c-a27666461a7a",
         "CountryId":"FR",
         "SiteGeo":"0000041045",
         "RRDIID":"814999U01F",
         "Name":"SPORTS 2000 AUTOMOBILES",
         "AddressLine1":"3 RUE EVARISTE GALLOIS",
         "AddressLine2":"ZAC LES GATINES",
         "AddressLine3":"",
         "ZipCode":"91600",
         "City":"SAVIGNY SUR ORGE",
         "Department":"Essonne",
         "Region":"Ile-de-France",
         "Longitude":2.336268,
         "Latitude":48.6932144,
         "DistanceFromPoint":18.21
      },
      {
         "ID":"a10c4a0c-f090-4aff-9564-646c86ec7638",
         "CountryId":"FR",
         "SiteGeo":"0000040422",
         "RRDIID":"232377J01F",
         "Name":"WP AUTOS",
         "AddressLine1":"1/3 AVENUE DU GENERAL LECLERC",
         "AddressLine2":"",
         "AddressLine3":"",
         "ZipCode":"93420",
         "City":"VILLEPINTE",
         "Department":"Seine-Saint-Denis",
         "Region":"Ile-de-France",
         "Longitude":2.56254,
         "Latitude":48.9471,
         "DistanceFromPoint":18.37
      },
      {
         "ID":"e68475af-8f5c-4e39-91a6-21d5f8b4613b",
         "CountryId":"FR",
         "SiteGeo":"0000039955",
         "RRDIID":"599740Y01F",
         "Name":"GARAGE VOLPILHAC",
         "AddressLine1":"10 PLACE DU 8 MAI 1945",
         "AddressLine2":"",
         "AddressLine3":"",
         "ZipCode":"95500",
         "City":"GONESSE",
         "Department":"Val-d\u0027Oise",
         "Region":"Ile-de-France",
         "Longitude":2.47335,
         "Latitude":49.002,
         "DistanceFromPoint":18.43
      },
      {
         "ID":"22107d6c-5855-498c-8a88-6f14d156dc7e",
         "CountryId":"FR",
         "SiteGeo":"0000040710",
         "RRDIID":"082853H01F",
         "Name":"SARL TEXIER ET FILS",
         "AddressLine1":"284-288 AVENUE HENRI BARBUSSE",
         "AddressLine2":"",
         "AddressLine3":"",
         "ZipCode":"91210",
         "City":"DRAVEIL",
         "Department":"Essonne",
         "Region":"Ile-de-France",
         "Longitude":2.4129,
         "Latitude":48.6929,
         "DistanceFromPoint":18.74
      },
      {
         "ID":"665f39b6-997c-4ee4-926c-995ff30191c5",
         "CountryId":"FR",
         "SiteGeo":"0000038836",
         "RRDIID":"136960W01F",
         "Name":"GARAGE PULEO",
         "AddressLine1":"3-5 AVENUE GABRIEL PERI",
         "AddressLine2":"",
         "AddressLine3":"",
         "ZipCode":"91600",
         "City":"SAVIGNY SUR ORGE",
         "Department":"Essonne",
         "Region":"Ile-de-France",
         "Longitude":2.35742,
         "Latitude":48.6881,
         "DistanceFromPoint":18.74
      },
      {
         "ID":"5a4e3031-2916-457f-9b93-c4df65e04c7a",
         "CountryId":"FR",
         "SiteGeo":"0000040432",
         "RRDIID":"665696H01F",
         "Name":"GARAGE MALHERBE CHELLES",
         "AddressLine1":"ANGLE AV PASCAL - AV DES SCIENNES",
         "AddressLine2":"",
         "AddressLine3":"",
         "ZipCode":"77500",
         "City":"CHELLES",
         "Department":"Seine-et-Marne",
         "Region":"Ile-de-France",
         "Longitude":2.60597,
         "Latitude":48.8808,
         "DistanceFromPoint":18.75
      },
      {
         "ID":"563b955c-9fc9-4910-a687-d0e018830ce1",
         "CountryId":"FR",
         "SiteGeo":"0000039802",
         "RRDIID":"599754R01F",
         "Name":"GARAGE D\u0027OMBREVAL",
         "AddressLine1":"6 RUE D\u0027OMBREVAL",
         "AddressLine2":"",
         "AddressLine3":"",
         "ZipCode":"95330",
         "City":"DOMONT",
         "Department":"Val-d\u0027Oise",
         "Region":"Ile-de-France",
         "Longitude":2.32444,
         "Latitude":49.026,
         "DistanceFromPoint":18.94
      },
      {
         "ID":"3fd9dab7-38b3-4a90-a0f0-f7f7dd1dbbe2",
         "CountryId":"FR",
         "SiteGeo":"0000040192",
         "RRDIID":"073183X01F",
         "Name":"EURL F.B GARAGE DES ECOLES",
         "AddressLine1":"25 RUE DES ECOLES",
         "AddressLine2":"",
         "AddressLine3":"",
         "ZipCode":"95460",
         "City":"EZANVILLE",
         "Department":"Val-d\u0027Oise",
         "Region":"Ile-de-France",
         "Longitude":2.3569,
         "Latitude":49.0292,
         "DistanceFromPoint":19.19
      },
      {
         "ID":"d85e5683-f8c0-4ddd-8741-b6e1915c2b96",
         "CountryId":"FR",
         "SiteGeo":"0000039094",
         "RRDIID":"766325L01F",
         "Name":"SAULX AUTOMOBILES",
         "AddressLine1":"17 RUE DE LA DIVISION LECLERC",
         "AddressLine2":"",
         "AddressLine3":"",
         "ZipCode":"91160",
         "City":"SAULX LES CHARTREUX",
         "Department":"Essonne",
         "Region":"Ile-de-France",
         "Longitude":2.26838,
         "Latitude":48.6927,
         "DistanceFromPoint":19.23
      },
      {
         "ID":"fd4704a9-7af5-48f7-b388-59c14270db71",
         "CountryId":"FR",
         "SiteGeo":"0000038690",
         "RRDIID":"614499C01F",
         "Name":"GARAGE ST HONORE BUC",
         "AddressLine1":"641 AVENUE GUYNEMER",
         "AddressLine2":"",
         "AddressLine3":"",
         "ZipCode":"78530",
         "City":"BUC",
         "Department":"Yvelines",
         "Region":"Ile-de-France",
         "Longitude":2.127705,
         "Latitude":48.76535,
         "DistanceFromPoint":19.32
      },
      {
         "ID":"d5f61ec1-eb0b-4097-962f-6000ce6574db",
         "CountryId":"FR",
         "SiteGeo":"0000043351",
         "RRDIID":"965371S01F",
         "Name":"GARAGE DES SPORTS",
         "AddressLine1":"141 ROUTE NATIONALE 7",
         "AddressLine2":"",
         "AddressLine3":"",
         "ZipCode":"91170",
         "City":"VIRY CHATILLON",
         "Department":"Essonne",
         "Region":"Ile-de-France",
         "Longitude":2.376845,
         "Latitude":48.6829224,
         "DistanceFromPoint":19.4
      },
      {
         "ID":"a81f3f32-e733-45ec-b746-d34fd5864513",
         "CountryId":"FR",
         "SiteGeo":"0000038523",
         "RRDIID":"020458M01F",
         "Name":"SAS RUFFIN HEITMANN",
         "AddressLine1":"129 AVENUE CHARLES DE GAULLE",
         "AddressLine2":"",
         "AddressLine3":"",
         "ZipCode":"91230",
         "City":"MONTGERON",
         "Department":"Essonne",
         "Region":"Ile-de-France",
         "Longitude":2.446325,
         "Latitude":48.6925774,
         "DistanceFromPoint":19.5
      },
      {
         "ID":"3ca2dea6-2d24-4a1c-8de6-0929d30a6682",
         "CountryId":"FR",
         "SiteGeo":"0000038557",
         "RRDIID":"211186F01F",
         "Name":"GARAGE VINCENT PERE ET FILS",
         "AddressLine1":"183 RUE D\u0027HERBLAY",
         "AddressLine2":"",
         "AddressLine3":"",
         "ZipCode":"95150",
         "City":"TAVERNY",
         "Department":"Val-d\u0027Oise",
         "Region":"Ile-de-France",
         "Longitude":2.20771,
         "Latitude":49.0149,
         "DistanceFromPoint":20.52
      },
      {
         "ID":"4dc4f5de-7b70-4baf-8d34-f0ca62f73679",
         "CountryId":"FR",
         "SiteGeo":"0000039726",
         "RRDIID":"766150T01F",
         "Name":"GGE DU PLATEAU - GGE MERRIEN",
         "AddressLine1":"10 ROUTE DE DAMPIERRE",
         "AddressLine2":"",
         "AddressLine3":"",
         "ZipCode":"78280",
         "City":"GUYANCOURT",
         "Department":"Yvelines",
         "Region":"Ile-de-France",
         "Longitude":2.09609,
         "Latitude":48.7782,
         "DistanceFromPoint":20.68
      },
      {
         "ID":"7c41d039-f56a-403a-b67d-930bd50308a7",
         "CountryId":"FR",
         "SiteGeo":"0000038353",
         "RRDIID":"282770J01F",
         "Name":"ROISSY FRANCILIENNE AUTOMOBILES SARL",
         "AddressLine1":"17 RUE DENIS PAPIN",
         "AddressLine2":"ZI DES 50 ARPENTS",
         "AddressLine3":"",
         "ZipCode":"77680",
         "City":"ROISSY EN BRIE",
         "Department":"Seine-et-Marne",
         "Region":"Ile-de-France",
         "Longitude":2.62732,
         "Latitude":48.8010254,
         "DistanceFromPoint":21.06
      },
      {
         "ID":"51ca96fc-8b39-4062-bbd4-1f090ee9b1df",
         "CountryId":"FR",
         "SiteGeo":"0000039899",
         "RRDIID":"082888E01F",
         "Name":"SARL GARAGE DU PLESSIS",
         "AddressLine1":"28 RUE DU PLESSIS",
         "AddressLine2":"",
         "AddressLine3":"",
         "ZipCode":"91700",
         "City":"SAINTE GENEVIEVE DES BOIS",
         "Department":"Essonne",
         "Region":"Ile-de-France",
         "Longitude":2.27841,
         "Latitude":48.671,
         "DistanceFromPoint":21.34
      },
      {
         "ID":"4e28e40e-f3a3-43f1-9751-e75ae19552c8",
         "CountryId":"FR",
         "SiteGeo":"0000043081",
         "RRDIID":"449632F01F",
         "Name":"AUTO REPARATION TORCY",
         "AddressLine1":"11 RUE DE L\u0027ORANGERIE",
         "AddressLine2":"",
         "AddressLine3":"",
         "ZipCode":"77200",
         "City":"TORCY",
         "Department":"Seine-et-Marne",
         "Region":"Ile-de-France",
         "Longitude":2.649926,
         "Latitude":48.8517265,
         "DistanceFromPoint":21.79
      },
      {
         "ID":"4b0ff1a7-bff5-42b6-aab9-9870856083f8",
         "CountryId":"FR",
         "SiteGeo":"0000039690",
         "RRDIID":"385875Z01F",
         "Name":"SARL GARAGE PRO AUTOMOBILE",
         "AddressLine1":"91-95 RUE DE RUZE",
         "AddressLine2":"",
         "AddressLine3":"",
         "ZipCode":"77270",
         "City":"VILLEPARISIS",
         "Department":"Seine-et-Marne",
         "Region":"Ile-de-France",
         "Longitude":2.62287,
         "Latitude":48.9406,
         "DistanceFromPoint":21.88
      },
      {
         "ID":"9210eb0e-d233-4741-83b9-e1ad0b063567",
         "CountryId":"FR",
         "SiteGeo":"0000038192",
         "RRDIID":"058850T01F",
         "Name":"CITROËN RETAIL LES ULIS",
         "AddressLine1":"2 AVENUE DES TROPIQUES",
         "AddressLine2":"ZA DE COURTABOEUF",
         "AddressLine3":"",
         "ZipCode":"91940",
         "City":"LES ULIS",
         "Department":"Essonne",
         "Region":"Ile-de-France",
         "Longitude":2.190378,
         "Latitude":48.68433,
         "DistanceFromPoint":22.53
      },
      {
         "ID":"389697b0-25dd-477b-842e-81c5f3f53368",
         "CountryId":"FR",
         "SiteGeo":"0000038257",
         "RRDIID":"020015F01F",
         "Name":"ESSAUTO DIFFUSION",
         "AddressLine1":"91 ROUTE DE CORBEIL",
         "AddressLine2":"",
         "AddressLine3":"",
         "ZipCode":"91390",
         "City":"MORSANG SUR ORGE",
         "Department":"Essonne",
         "Region":"Ile-de-France",
         "Longitude":2.33771,
         "Latitude":48.6526,
         "DistanceFromPoint":22.71
      },
      {
         "ID":"71a6ec55-9d55-4f27-95f7-93aa0ebde368",
         "CountryId":"FR",
         "SiteGeo":"0000038357",
         "RRDIID":"020390N01F",
         "Name":"OUEST AUTOMOBILE DISTRIBUTION CHAMBOURCY",
         "AddressLine1":"45 ROUTE DE MANTES",
         "AddressLine2":"RN 13",
         "AddressLine3":"",
         "ZipCode":"78240",
         "City":"CHAMBOURCY",
         "Department":"Yvelines",
         "Region":"Ile-de-France",
         "Longitude":2.046166,
         "Latitude":48.90706,
         "DistanceFromPoint":23.07
      },
      {
         "ID":"625758f0-3dd5-45a7-a57e-f53785d5b57d",
         "CountryId":"FR",
         "SiteGeo":"0000039725",
         "RRDIID":"082874V01F",
         "Name":"GARAGE DE L\u0027AUNETTE SARL",
         "AddressLine1":"72 AVENUE DE LA LIBERATION",
         "AddressLine2":"",
         "AddressLine3":"",
         "ZipCode":"91130",
         "City":"RIS ORANGIS",
         "Department":"Essonne",
         "Region":"Ile-de-France",
         "Longitude":2.41632,
         "Latitude":48.6496,
         "DistanceFromPoint":23.49
      },
      {
         "ID":"5a0d9f88-fb74-42c0-84fc-6b1020882cdc",
         "CountryId":"FR",
         "SiteGeo":"0000042265",
         "RRDIID":"685503M01F",
         "Name":"GARAGE DE L\u0027AUTOROUTE",
         "AddressLine1":"2 AVENUE JEAN JAURES",
         "AddressLine2":"",
         "AddressLine3":"",
         "ZipCode":"78390",
         "City":"BOIS D\u0027ARCY",
         "Department":"Yvelines",
         "Region":"Ile-de-France",
         "Longitude":2.042635,
         "Latitude":48.799324,
         "DistanceFromPoint":23.54
      },
      {
         "ID":"bc0ec838-a8c4-4336-8882-35eb8537bf02",
         "CountryId":"FR",
         "SiteGeo":"0000040534",
         "RRDIID":"485290P01F",
         "Name":"G.D.A.P",
         "AddressLine1":"20 AVENUE DE POISSY",
         "AddressLine2":"",
         "AddressLine3":"",
         "ZipCode":"78260",
         "City":"ACHERES",
         "Department":"Yvelines",
         "Region":"Ile-de-France",
         "Longitude":2.06572,
         "Latitude":48.9548,
         "DistanceFromPoint":23.62
      },
      {
         "ID":"a0a1c27b-02d3-43ef-bd6c-bd37474f0ba4",
         "CountryId":"FR",
         "SiteGeo":"0000038603",
         "RRDIID":"805235F01F",
         "Name":"YVOIS LAGNY AUTOMOBILES SARL",
         "AddressLine1":"57 AVENUE DU GENERAL LECLERC",
         "AddressLine2":"",
         "AddressLine3":"",
         "ZipCode":"77400",
         "City":"SAINT THIBAULT DES VIGNES",
         "Department":"Seine-et-Marne",
         "Region":"Ile-de-France",
         "Longitude":2.68409,
         "Latitude":48.8717,
         "DistanceFromPoint":24.33
      },
      {
         "ID":"33cb2b5c-89d4-4df7-bb5e-a4c1c863dac6",
         "CountryId":"FR",
         "SiteGeo":"0000040024",
         "RRDIID":"766220U01F",
         "Name":"SNDAW",
         "AddressLine1":"P.A DE GOMBERVILLE",
         "AddressLine2":"",
         "AddressLine3":"",
         "ZipCode":"78114",
         "City":"MAGNY LES HAMEAUX",
         "Department":"Yvelines",
         "Region":"Ile-de-France",
         "Longitude":2.0813,
         "Latitude":48.7289,
         "DistanceFromPoint":24.4
      },
      {
         "ID":"22abca51-3f74-404b-93ba-f38ea889bdfc",
         "CountryId":"FR",
         "SiteGeo":"0000039974",
         "RRDIID":"211172J01F",
         "Name":"AUTOMOBILES DU RENOUVEAU",
         "AddressLine1":"56 RUE DE L\u0027AMBASSADEUR",
         "AddressLine2":"",
         "AddressLine3":"",
         "ZipCode":"78700",
         "City":"CONFLANS STE HONORINE",
         "Department":"Yvelines",
         "Region":"Ile-de-France",
         "Longitude":2.11077,
         "Latitude":49.0087,
         "DistanceFromPoint":24.44
      },
      {
         "ID":"6c27a5bc-493d-4146-9b69-d884398af836",
         "CountryId":"FR",
         "SiteGeo":"0000038762",
         "RRDIID":"818930S01F",
         "Name":"GARAGE 2000",
         "AddressLine1":"4 RUE DE ROSIERES",
         "AddressLine2":"",
         "AddressLine3":"",
         "ZipCode":"91700",
         "City":"SAINTE GENEVIEVE DES BOIS",
         "Department":"Essonne",
         "Region":"Ile-de-France",
         "Longitude":2.32697,
         "Latitude":48.6362,
         "DistanceFromPoint":24.58
      },
      {
         "ID":"cb910b49-b55f-4eb8-8adb-093e1956c64b",
         "CountryId":"FR",
         "SiteGeo":"0000038294",
         "RRDIID":"058812B01F",
         "Name":"SOGAME BRIE COMTE ROBERT",
         "AddressLine1":"6 RUE DU GENERAL LECLERC",
         "AddressLine2":"",
         "AddressLine3":"",
         "ZipCode":"77170",
         "City":"BRIE COMTE ROBERT",
         "Department":"Seine-et-Marne",
         "Region":"Ile-de-France",
         "Longitude":2.598551,
         "Latitude":48.70156,
         "DistanceFromPoint":24.96
      },
      {
         "ID":"16c3ecae-1682-44b1-b87d-07de8a8f2b55",
         "CountryId":"FR",
         "SiteGeo":"0000040434",
         "RRDIID":"429663A01F",
         "Name":"R\u0027EVE AUTOS",
         "AddressLine1":"53 ROUTE DE MARCOUSSIS",
         "AddressLine2":"",
         "AddressLine3":"",
         "ZipCode":"91310",
         "City":"MONTLHERY",
         "Department":"Essonne",
         "Region":"Ile-de-France",
         "Longitude":2.26098,
         "Latitude":48.6392,
         "DistanceFromPoint":25.08
      },
      {
         "ID":"8059546c-c043-407b-9571-897458195466",
         "CountryId":"FR",
         "SiteGeo":"0000039938",
         "RRDIID":"385924H01F",
         "Name":"GARAGE DE LA PLAINE",
         "AddressLine1":"31 RUE DE MONTLHERY",
         "AddressLine2":"",
         "AddressLine3":"",
         "ZipCode":"91460",
         "City":"MARCOUSSIS",
         "Department":"Essonne",
         "Region":"Ile-de-France",
         "Longitude":2.249134,
         "Latitude":48.6399574,
         "DistanceFromPoint":25.25
      },
      {
         "ID":"9c398b83-5f13-42d4-ac51-78d539a8a59b",
         "CountryId":"FR",
         "SiteGeo":"0000038596",
         "RRDIID":"137100T01F",
         "Name":"AXIOME",
         "AddressLine1":"ROUTE DE POISSY CHANTELOUP",
         "AddressLine2":"",
         "AddressLine3":"",
         "ZipCode":"78570",
         "City":"ANDRESY",
         "Department":"Yvelines",
         "Region":"Ile-de-France",
         "Longitude":2.03365,
         "Latitude":48.9655,
         "DistanceFromPoint":26.24
      },
      {
         "ID":"8671d694-14c0-43db-b350-f5ba732df21d",
         "CountryId":"FR",
         "SiteGeo":"0000038235",
         "RRDIID":"020813Y01F",
         "Name":"CITROËN RETAIL ST QUENTIN EN YVELINES",
         "AddressLine1":"551 AVENUE DES BOULEAUX",
         "AddressLine2":"Z.A. DU BUISSON DE LA COULDRE",
         "AddressLine3":"",
         "ZipCode":"78190",
         "City":"TRAPPES",
         "Department":"Yvelines",
         "Region":"Ile-de-France",
         "Longitude":2.013293,
         "Latitude":48.7712135,
         "DistanceFromPoint":26.57
      },
      {
         "ID":"49c15ae9-ea2f-425b-8d71-9da4eb483fec",
         "CountryId":"FR",
         "SiteGeo":"0000045062",
         "RRDIID":"197303K01F",
         "Name":"CLV AUTOMOBILES",
         "AddressLine1":"2 RUE LOUIS ET AUGUSTE LUMIERE",
         "AddressLine2":"",
         "AddressLine3":"",
         "ZipCode":"77380",
         "City":"COMBS LA VILLE",
         "Department":"Seine-et-Marne",
         "Region":"Ile-de-France",
         "Longitude":2.55924,
         "Latitude":48.65625,
         "DistanceFromPoint":26.96
      },
      {
         "ID":"2f46df51-4645-460a-9f10-e1c8c5f46ab9",
         "CountryId":"FR",
         "SiteGeo":"0000039507",
         "RRDIID":"614492K01F",
         "Name":"ETS MAURI",
         "AddressLine1":"4 RUE DES ENTREPRENEURS",
         "AddressLine2":"",
         "AddressLine3":"",
         "ZipCode":"78340",
         "City":"LES CLAYES SOUS BOIS",
         "Department":"Yvelines",
         "Region":"Ile-de-France",
         "Longitude":1.97663,
         "Latitude":48.8295,
         "DistanceFromPoint":27.65
      },
      {
         "ID":"c389be07-4ddc-4792-a859-e340c403dd9c",
         "CountryId":"FR",
         "SiteGeo":"0000038138",
         "RRDIID":"020189V01F",
         "Name":"VETILLE AUTOMOBILES BRETIGNY",
         "AddressLine1":"70 AVENUE CHARLES DE GAULLE",
         "AddressLine2":"",
         "AddressLine3":"",
         "ZipCode":"91220",
         "City":"BRETIGNY SUR ORGE",
         "Department":"Essonne",
         "Region":"Ile-de-France",
         "Longitude":2.31853,
         "Latitude":48.6084,
         "DistanceFromPoint":27.71
      },
      {
         "ID":"9dddf7a5-a1c3-4b9f-b716-bd48d80dd33f",
         "CountryId":"FR",
         "SiteGeo":"0000038304",
         "RRDIID":"020432J01F",
         "Name":"EVRY CORBEIL AUTOMOBILES",
         "AddressLine1":"33-35 AVENUE DU 8 MAI 1945",
         "AddressLine2":"",
         "AddressLine3":"",
         "ZipCode":"91100",
         "City":"CORBEIL ESSONNES",
         "Department":"Essonne",
         "Region":"Ile-de-France",
         "Longitude":2.4573,
         "Latitude":48.61078,
         "DistanceFromPoint":28.4
      },
      {
         "ID":"d7868489-6ced-4e3b-9458-ed46115b3ed6",
         "CountryId":"FR",
         "SiteGeo":"0000045118",
         "RRDIID":"468024X01F",
         "Name":"AXIOME ORGEVAL",
         "AddressLine1":"116 AVENUE PASTEUR",
         "AddressLine2":"",
         "AddressLine3":"",
         "ZipCode":"78630",
         "City":"ORGEVAL",
         "Department":"Yvelines",
         "Region":"Ile-de-France",
         "Longitude":1.976372,
         "Latitude":48.9248161,
         "DistanceFromPoint":28.51
      },
      {
         "ID":"85c2f0e1-039a-481b-86a0-79407a6b6496",
         "CountryId":"FR",
         "SiteGeo":"0000040004",
         "RRDIID":"048585J01F",
         "Name":"GARAGE DU SOUTERRAIN SARL",
         "AddressLine1":"59-63 RUE DU MAL DE LATTRE DE TASSIGNY",
         "AddressLine2":"",
         "AddressLine3":"",
         "ZipCode":"91100",
         "City":"CORBEIL ESSONNES",
         "Department":"Essonne",
         "Region":"Ile-de-France",
         "Longitude":2.4793,
         "Latitude":48.6111,
         "DistanceFromPoint":28.85
      },
      {
         "ID":"a668691e-bbf6-4cd4-9717-5d32d4df61d4",
         "CountryId":"FR",
         "SiteGeo":"0000038419",
         "RRDIID":"020488V01F",
         "Name":"COURTOISE DISTRIBUTION AUTO SAS PONTOISE",
         "AddressLine1":"21 CHAUSSEE JULES CESAR",
         "AddressLine2":"",
         "AddressLine3":"",
         "ZipCode":"95300",
         "City":"PONTOISE",
         "Department":"Val-d\u0027Oise",
         "Region":"Ile-de-France",
         "Longitude":2.081453,
         "Latitude":49.0470047,
         "DistanceFromPoint":28.97
      },
      {
         "ID":"9c7814b2-3a1f-4c52-b0ce-d0b34eb5f06d",
         "CountryId":"FR",
         "SiteGeo":"0000040383",
         "RRDIID":"562124E01F",
         "Name":"GARAGE HEBERT",
         "AddressLine1":"85 BOULEVARD DE L\u0027EUROPE",
         "AddressLine2":"",
         "AddressLine3":"",
         "ZipCode":"78540",
         "City":"VERNOUILLET",
         "Department":"Yvelines",
         "Region":"Ile-de-France",
         "Longitude":1.99073,
         "Latitude":48.967,
         "DistanceFromPoint":29.13
      },
      {
         "ID":"f763bfa2-677f-4840-815d-f158588b2630",
         "CountryId":"FR",
         "SiteGeo":"0000040582",
         "RRDIID":"270049G01F",
         "Name":"GARAGE DE LA CHAINE",
         "AddressLine1":"1264 RUE JULES REGNIER",
         "AddressLine2":"",
         "AddressLine3":"",
         "ZipCode":"78370",
         "City":"PLAISIR",
         "Department":"Yvelines",
         "Region":"Ile-de-France",
         "Longitude":1.95208442,
         "Latitude":48.8070526,
         "DistanceFromPoint":29.8
      }
   ]
}